{"request":{"start":{"lat":51.53735345562071,"lng":-0.38328552246099434},"dest":{"lat":51.44329522308777,"lng":0.21958923339838066},"time":"2019-01-22T18:17:07.000Z"},"routes":[{"id":"h-t-route-4-R005ed2-C0","departure":{"lat":51.537354,"lng":-0.383286,"type":"address","time":"2019-01-22T18:27:00.000Z"},"arrival":{"lat":51.443295,"lng":0.219589,"type":"address","time":"2019-01-22T20:22:00.000Z"},"router":{"name":"abstract"},"legs":[{"id":"g-leg-15","departure":{"lat":51.537354,"lng":-0.383286,"type":"address","time":"2019-01-22T18:27:00.000Z"},"arrival":{"lat":51.539192,"lng":-0.385959,"type":"stop","_name":"Bengarth Road Northolt Library (Stop TD)","time":"2019-01-22T18:33:00.000Z","id":"420309244"},"distance":379,"summary":"Go to Bengarth Road Northolt Library (Stop TD)","transport":{"type":"walk","name":"walk"},"steps":[],"geometry":[]},{"id":"g-leg-16","departure":{"lat":51.539192,"lng":-0.385959,"type":"stop","_name":"Bengarth Road Northolt Library (Stop TD)","time":"2019-01-22T18:33:00.000Z","id":"420309244"},"arrival":{"lat":51.547668,"lng":-0.368756,"type":"stop","_name":"Northolt Station (Stop A)","time":"2019-01-22T18:41:00.000Z","id":"420306803"},"summary":"Go to Northolt Station (Stop A)","transport":{"type":"bus","name":"120","headsign":"Northolt"},"steps":[{"lat":51.539192,"lng":-0.385959,"type":"stop","_name":"Bengarth Road Northolt Library (Stop TD)","time":"2019-01-22T18:33:00.000Z","id":"420309244"},{"lat":51.540901,"lng":-0.381976,"type":"stop","_name":"Sycamore Close (Stop TE)","time":"2019-01-22T18:34:00.000Z","id":"420320728"},{"lat":51.542522,"lng":-0.378919,"type":"stop","_name":"Target Roundabout (Stop TF)","time":"2019-01-22T18:36:00.000Z","id":"420320770"},{"lat":51.543949,"lng":-0.375364,"type":"stop","_name":"Kingston Close (Stop TH)","time":"2019-01-22T18:37:00.000Z","id":"420312602"},{"lat":51.54493,"lng":-0.372863,"type":"stop","_name":"Alderney Gardens (Stop TJ)","time":"2019-01-22T18:38:00.000Z","id":"420308313"},{"lat":51.546452,"lng":-0.370458,"type":"stop","_name":"Moat Farm Road (Stop C)","time":"2019-01-22T18:39:00.000Z","id":"420316782"},{"lat":51.547668,"lng":-0.368756,"type":"stop","_name":"Northolt Station (Stop A)","time":"2019-01-22T18:41:00.000Z","id":"420306803"}],"geometry":[[51.539167,-0.385951],[51.539515,-0.384983],[51.53958,-0.384757],[51.539741,-0.38435],[51.540871,-0.381962],[51.541307,-0.381088],[51.541683,-0.380455],[51.54223,-0.379468],[51.542391,-0.379125],[51.542449,-0.3789],[51.542552,-0.378599],[51.542627,-0.378513],[51.542766,-0.37846],[51.542906,-0.378492],[51.543045,-0.378481],[51.543099,-0.378449],[51.543195,-0.378352],[51.543238,-0.378245],[51.543281,-0.378116],[51.543313,-0.37788],[51.543303,-0.377591],[51.543281,-0.377462],[51.543335,-0.377097],[51.543624,-0.376174],[51.543775,-0.375595],[51.544257,-0.373986],[51.544869,-0.372741],[51.545201,-0.372076],[51.545416,-0.371743],[51.546389,-0.370412],[51.546704,-0.370005],[51.547551,-0.368847]]},{"id":"g-leg-17","departure":{"lat":51.547668,"lng":-0.368756,"type":"stop","_name":"Northolt Station (Stop A)","time":"2019-01-22T18:41:00.000Z","id":"420306803"},"arrival":{"lat":51.548458,"lng":-0.369103,"type":"stop","_name":"Northolt","time":"2019-01-22T18:48:00.000Z","id":"420326358"},"distance":196,"summary":"Go to Northolt","transport":{"type":"walk","name":"walk"},"steps":[],"geometry":[]},{"id":"g-leg-18","departure":{"lat":51.548458,"lng":-0.369103,"type":"stop","_name":"Northolt","time":"2019-01-22T18:49:00.000Z","id":"420326358"},"arrival":{"lat":51.51526,"lng":-0.141859,"type":"stop","_name":"Oxford Circus","time":"2019-01-22T19:18:00.000Z","id":"420326372"},"summary":"Go to Oxford Circus","transport":{"type":"subway","name":"Central","color":"#DA2127","headsign":"Hainault"},"steps":[{"lat":51.548458,"lng":-0.369103,"type":"stop","_name":"Northolt","time":"2019-01-22T18:49:00.000Z","id":"420326358"},{"lat":51.542294,"lng":-0.345258,"type":"stop","_name":"Greenford","time":"2019-01-22T18:50:00.000Z","id":"420326215"},{"lat":51.536671,"lng":-0.322776,"type":"stop","_name":"Perivale","time":"2019-01-22T18:52:00.000Z","id":"420326398"},{"lat":51.530331,"lng":-0.293382,"type":"stop","_name":"Hanger Lane","time":"2019-01-22T18:55:00.000Z","id":"420326245"},{"lat":51.523656,"lng":-0.259653,"type":"stop","_name":"North Acton","time":"2019-01-22T18:58:00.000Z","id":"420326341"},{"lat":51.517143,"lng":-0.247868,"type":"stop","_name":"East Acton","time":"2019-01-22T19:00:00.000Z","id":"420326165"},{"lat":51.512042,"lng":-0.223902,"type":"stop","_name":"White City","time":"2019-01-22T19:03:00.000Z","id":"420326508"},{"lat":51.504562,"lng":-0.218105,"type":"stop","_name":"Shepherd's Bush","time":"2019-01-22T19:07:00.000Z","id":"420326426"},{"lat":51.507087,"lng":-0.205703,"type":"stop","_name":"Holland Park","time":"2019-01-22T19:08:00.000Z","id":"420326253"},{"lat":51.509149,"lng":-0.196084,"type":"stop","_name":"Notting Hill Gate","time":"2019-01-22T19:10:00.000Z","id":"420326354"},{"lat":51.510311,"lng":-0.187185,"type":"stop","_name":"Queensway","time":"2019-01-22T19:11:00.000Z","id":"420326404"},{"lat":51.511772,"lng":-0.174661,"type":"stop","_name":"Lancaster Gate","time":"2019-01-22T19:13:00.000Z","id":"420326302"},{"lat":51.513592,"lng":-0.157581,"type":"stop","_name":"Marble Arch","time":"2019-01-22T19:15:00.000Z","id":"420326318"},{"lat":51.5143,"lng":-0.149223,"type":"stop","_name":"Bond Street","time":"2019-01-22T19:17:00.000Z","id":"420326087"},{"lat":51.51526,"lng":-0.141859,"type":"stop","_name":"Oxford Circus","time":"2019-01-22T19:18:00.000Z","id":"420326372"}],"geometry":[[51.548393,-0.369119],[51.548231,-0.368481],[51.547997,-0.367559],[51.547634,-0.366113],[51.547164,-0.364251],[51.546726,-0.362578],[51.545924,-0.359473],[51.545078,-0.356156],[51.544468,-0.353881],[51.544003,-0.352218],[51.543675,-0.35095],[51.543301,-0.349381],[51.542858,-0.347603],[51.542294,-0.345258],[51.542188,-0.344816],[51.54184,-0.343486],[51.541503,-0.342234],[51.54111,-0.340863],[51.540839,-0.339838],[51.540434,-0.338485],[51.540186,-0.337549],[51.539888,-0.336411],[51.539579,-0.335253],[51.539461,-0.334748],[51.539286,-0.333917],[51.539144,-0.333264],[51.539018,-0.332693],[51.538741,-0.331562],[51.538548,-0.330746],[51.538297,-0.32969],[51.538039,-0.328635],[51.53778,-0.327614],[51.537517,-0.326584],[51.537124,-0.325063],[51.536919,-0.324298],[51.536544,-0.322808],[51.536108,-0.321078],[51.535883,-0.320221],[51.535557,-0.318929],[51.535211,-0.317555],[51.534915,-0.316402],[51.53468,-0.31547],[51.534472,-0.314646],[51.534248,-0.313765],[51.533957,-0.312636],[51.533654,-0.311452],[51.533301,-0.310076],[51.532815,-0.308099],[51.532365,-0.306386],[51.532095,-0.305257],[51.53199,-0.304784],[51.531878,-0.304233],[51.53179,-0.303702],[51.531689,-0.303113],[51.53163,-0.302778],[51.531547,-0.302264],[51.531408,-0.301379],[51.531285,-0.300473],[51.531183,-0.299558],[51.531069,-0.298575],[51.53093,-0.297573],[51.530638,-0.29544],[51.530509,-0.294583],[51.530314,-0.293385],[51.530298,-0.293287],[51.529944,-0.291437],[51.529567,-0.289581],[51.529154,-0.287555],[51.528882,-0.286252],[51.528719,-0.285428],[51.528718,-0.285423],[51.528623,-0.284943],[51.52812,-0.282315],[51.527347,-0.278322],[51.526591,-0.274543],[51.526047,-0.271793],[51.525583,-0.269361],[51.525084,-0.266762],[51.525018,-0.266298],[51.524978,-0.266058],[51.524932,-0.265821],[51.52479,-0.265106],[51.524602,-0.264243],[51.52387,-0.260624],[51.523656,-0.259653],[51.523469,-0.258805],[51.523387,-0.258433],[51.5233,-0.258062],[51.523159,-0.257497],[51.52309,-0.257214],[51.523026,-0.256932],[51.522685,-0.25542],[51.522557,-0.254915],[51.522425,-0.254488],[51.522304,-0.254144],[51.52217,-0.25381],[51.522049,-0.253516],[51.521927,-0.253245],[51.521825,-0.253042],[51.521713,-0.252846],[51.521606,-0.252665],[51.521488,-0.252485],[51.521348,-0.252286],[51.521198,-0.252092],[51.520946,-0.251789],[51.520841,-0.251667],[51.520739,-0.251555],[51.52055,-0.251356],[51.520214,-0.251009],[51.519788,-0.250591],[51.519608,-0.250399],[51.518495,-0.249287],[51.517353,-0.248113],[51.517162,-0.247905],[51.517136,-0.247874],[51.516989,-0.247702],[51.516799,-0.24745],[51.516683,-0.247284],[51.516571,-0.247116],[51.516395,-0.246833],[51.516237,-0.246555],[51.516121,-0.24631],[51.51601,-0.246048],[51.515878,-0.245733],[51.515762,-0.245422],[51.515647,-0.245075],[51.515546,-0.244717],[51.51547,-0.244358],[51.515397,-0.243954],[51.515346,-0.243619],[51.515303,-0.243256],[51.515281,-0.243032],[51.515263,-0.242787],[51.515246,-0.242478],[51.515242,-0.242176],[51.515243,-0.242001],[51.51525,-0.241813],[51.515264,-0.24155],[51.515329,-0.2406],[51.515386,-0.239735],[51.515503,-0.238427],[51.515555,-0.237768],[51.515658,-0.236555],[51.515683,-0.236265],[51.515703,-0.235977],[51.515715,-0.235686],[51.515713,-0.235268],[51.51572,-0.234897],[51.515735,-0.234508],[51.515754,-0.234315],[51.515778,-0.234116],[51.515813,-0.233906],[51.515851,-0.233712],[51.515885,-0.233508],[51.515918,-0.233283],[51.515964,-0.232892],[51.516005,-0.232518],[51.516038,-0.232078],[51.51606,-0.231673],[51.516068,-0.231284],[51.516071,-0.230807],[51.516058,-0.230306],[51.516027,-0.229827],[51.515968,-0.229201],[51.515877,-0.228573],[51.515784,-0.228053],[51.515694,-0.227636],[51.515578,-0.227198],[51.515498,-0.226919],[51.515423,-0.226677],[51.515324,-0.226378],[51.515227,-0.2261],[51.51516,-0.22593],[51.515072,-0.225745],[51.515006,-0.225616],[51.514935,-0.225503],[51.514863,-0.225407],[51.514792,-0.225324],[51.514682,-0.225211],[51.514563,-0.225106],[51.514457,-0.225027],[51.514352,-0.224954],[51.514209,-0.22487],[51.514057,-0.224802],[51.513778,-0.224687],[51.513196,-0.224444],[51.512042,-0.223902],[51.510404,-0.223132],[51.505323,-0.220677],[51.505162,-0.220593],[51.505007,-0.220499],[51.504935,-0.220447],[51.504864,-0.220391],[51.504789,-0.22033],[51.504722,-0.220267],[51.504663,-0.220199],[51.504605,-0.220125],[51.504555,-0.220055],[51.504506,-0.219975],[51.504464,-0.219895],[51.504427,-0.219806],[51.504395,-0.219714],[51.504365,-0.219613],[51.504345,-0.219533],[51.504326,-0.219445],[51.504307,-0.219352],[51.504294,-0.21925],[51.504287,-0.219175],[51.504284,-0.2191],[51.504286,-0.218946],[51.504288,-0.218669],[51.5043,-0.218435],[51.504315,-0.218198],[51.504326,-0.218083],[51.504337,-0.217963],[51.504366,-0.217729],[51.504405,-0.217498],[51.504454,-0.217278],[51.504562,-0.216844],[51.506234,-0.209113],[51.506926,-0.206271],[51.507087,-0.205703],[51.507424,-0.204505],[51.507825,-0.202838],[51.508223,-0.201181],[51.508295,-0.200848],[51.508542,-0.199472],[51.508789,-0.198089],[51.508856,-0.19771],[51.508929,-0.197296],[51.508984,-0.196982],[51.509043,-0.196642],[51.509103,-0.196326],[51.509149,-0.196083],[51.509171,-0.195961],[51.509219,-0.195704],[51.509267,-0.195449],[51.509523,-0.194096],[51.509715,-0.193047],[51.50993,-0.191877],[51.50999,-0.191372],[51.510036,-0.190822],[51.510115,-0.189377],[51.510236,-0.187267],[51.510244,-0.187179],[51.510311,-0.186446],[51.510504,-0.184551],[51.510946,-0.180879],[51.511359,-0.177536],[51.511695,-0.175083],[51.511742,-0.174658],[51.512894,-0.164125],[51.513067,-0.16208],[51.513229,-0.159777],[51.513457,-0.157723],[51.513474,-0.157569],[51.513642,-0.155945],[51.513813,-0.153777],[51.514224,-0.149912],[51.5143,-0.149223],[51.5143,-0.149223],[51.514741,-0.14595],[51.515012,-0.143814],[51.51526,-0.141859]]},{"id":"g-leg-19","departure":{"lat":51.51526,"lng":-0.141859,"type":"stop","_name":"Oxford Circus","time":"2019-01-22T19:22:00.000Z","id":"420326372"},"arrival":{"lat":51.507402,"lng":-0.12772,"type":"stop","_name":"Charing Cross","time":"2019-01-22T19:25:00.000Z","id":"420326127"},"summary":"Go to Charing Cross","transport":{"type":"subway","name":"Bakerloo","color":"#884D28","headsign":"Elephant & Castle"},"steps":[{"lat":51.51526,"lng":-0.141859,"type":"stop","_name":"Oxford Circus","time":"2019-01-22T19:22:00.000Z","id":"420326372"},{"lat":51.509443,"lng":-0.135491,"type":"stop","_name":"Piccadilly Circus","time":"2019-01-22T19:24:00.000Z","id":"420326384"},{"lat":51.507402,"lng":-0.12772,"type":"stop","_name":"Charing Cross","time":"2019-01-22T19:25:00.000Z","id":"420326127"}],"geometry":[[51.51526,-0.141859],[51.51526,-0.141859],[51.514696,-0.141716],[51.514587,-0.141685],[51.514484,-0.141644],[51.514138,-0.141463],[51.513935,-0.141333],[51.513716,-0.141177],[51.513499,-0.141004],[51.512279,-0.139919],[51.510874,-0.138667],[51.510795,-0.138597],[51.510728,-0.138529],[51.510644,-0.138443],[51.510569,-0.138354],[51.510505,-0.138264],[51.510444,-0.138161],[51.51039,-0.138042],[51.510343,-0.137936],[51.510063,-0.137176],[51.509749,-0.136325],[51.509588,-0.135885],[51.509443,-0.135491],[51.509182,-0.134805],[51.508911,-0.134097],[51.508495,-0.132906],[51.508105,-0.131707],[51.507948,-0.131169],[51.507809,-0.130567],[51.507705,-0.130041],[51.507619,-0.129496],[51.507498,-0.128519],[51.50746,-0.128128],[51.507454,-0.128085],[51.507399,-0.12772]]},{"id":"g-leg-20","departure":{"lat":51.507402,"lng":-0.12772,"type":"stop","_name":"Charing Cross","time":"2019-01-22T19:25:00.000Z","id":"420326127"},"arrival":{"lat":51.508026,"lng":-0.124777,"type":"stop","_name":"London Charing Cross","time":"2019-01-22T19:32:00.000Z","id":"418102902"},"distance":255,"summary":"Go to London Charing Cross","transport":{"type":"walk","name":"walk"},"steps":[],"geometry":[]},{"id":"g-leg-21","departure":{"lat":51.508026,"lng":-0.124777,"type":"stop","_name":"London Charing Cross","time":"2019-01-22T19:32:00.000Z","id":"418102902"},"arrival":{"lat":51.447369,"lng":0.219276,"type":"stop","_name":"Dartford","time":"2019-01-22T20:10:00.000Z","id":"418103071"},"summary":"Go to Dartford","transport":{"type":"train","name":"Gravesend - London Charing Cross","color":"#1B1650","headsign":"Gravesend"},"steps":[{"lat":51.508026,"lng":-0.124777,"type":"stop","_name":"London Charing Cross","time":"2019-01-22T19:32:00.000Z","id":"418102902"},{"lat":51.504074,"lng":-0.108873,"type":"stop","_name":"London Waterloo East","time":"2019-01-22T19:34:00.000Z","id":"418104942"},{"lat":51.505108,"lng":-0.086062,"type":"stop","_name":"London Bridge","time":"2019-01-22T19:39:00.000Z","id":"418103857"},{"lat":51.438057,"lng":0.07056,"type":"stop","_name":"New Eltham","time":"2019-01-22T19:55:00.000Z","id":"418104123"},{"lat":51.433868,"lng":0.103821,"type":"stop","_name":"Sidcup","time":"2019-01-22T19:58:00.000Z","id":"418104502"},{"lat":51.440216,"lng":0.147929,"type":"stop","_name":"Bexley","time":"2019-01-22T20:02:00.000Z","id":"418102601"},{"lat":51.44828,"lng":0.178963,"type":"stop","_name":"Crayford","time":"2019-01-22T20:05:00.000Z","id":"418103005"},{"lat":51.447369,"lng":0.219276,"type":"stop","_name":"Dartford","time":"2019-01-22T20:10:00.000Z","id":"418103071"}],"geometry":[[51.507994,-0.124723],[51.507744,-0.12433],[51.50753,-0.123974],[51.507307,-0.123532],[51.507189,-0.123253],[51.5069,-0.122631],[51.506717,-0.122223],[51.506631,-0.121987],[51.506599,-0.121901],[51.506106,-0.120442],[51.50544,-0.118232],[51.505387,-0.118049],[51.504925,-0.116086],[51.504711,-0.115324],[51.504443,-0.114445],[51.5044,-0.114294],[51.504303,-0.114015],[51.504142,-0.113415],[51.504046,-0.113018],[51.50396,-0.112567],[51.503906,-0.111891],[51.503906,-0.111784],[51.503885,-0.111301],[51.503885,-0.111194],[51.503853,-0.110367],[51.503863,-0.110217],[51.503906,-0.109863],[51.504032,-0.108868],[51.504035,-0.108844],[51.504228,-0.107621],[51.50426,-0.107331],[51.504271,-0.106591],[51.504196,-0.104778],[51.504185,-0.104542],[51.504153,-0.102235],[51.504099,-0.101495],[51.504035,-0.10083],[51.504046,-0.099682],[51.504067,-0.098738],[51.504185,-0.09569],[51.504185,-0.095497],[51.504228,-0.094886],[51.504303,-0.094317],[51.504368,-0.093899],[51.504518,-0.093352],[51.504582,-0.093137],[51.504689,-0.092901],[51.504853,-0.092405],[51.505108,-0.091635],[51.50529,-0.091056],[51.505419,-0.090616],[51.505483,-0.090369],[51.505555,-0.08999],[51.505652,-0.089358],[51.505747,-0.088824],[51.505786,-0.088567],[51.505824,-0.088215],[51.505838,-0.087915],[51.505833,-0.087639],[51.505809,-0.087344],[51.505747,-0.086973],[51.505657,-0.08664],[51.505562,-0.086345],[51.505433,-0.08604],[51.505295,-0.085783],[51.505124,-0.085526],[51.503868,-0.083808],[51.503659,-0.083492],[51.503439,-0.083118],[51.503235,-0.082738],[51.502716,-0.081624],[51.502415,-0.08096],[51.502114,-0.080305],[51.501761,-0.079565],[51.501246,-0.078546],[51.501063,-0.078192],[51.500022,-0.076271],[51.499089,-0.074533],[51.498671,-0.073782],[51.498134,-0.072709],[51.497748,-0.072087],[51.496654,-0.069877],[51.496192,-0.068911],[51.495795,-0.068074],[51.495237,-0.066841],[51.494518,-0.065242],[51.494443,-0.065081],[51.493532,-0.063096],[51.492534,-0.060822],[51.492287,-0.060264],[51.490796,-0.056938],[51.49013,-0.055382],[51.489991,-0.055017],[51.489455,-0.053623],[51.488961,-0.052325],[51.488725,-0.051649],[51.48865,-0.051488],[51.488081,-0.050307],[51.487309,-0.048494],[51.486912,-0.047497],[51.486643,-0.046821],[51.485946,-0.045147],[51.485474,-0.043945],[51.485378,-0.04372],[51.484938,-0.042593],[51.484745,-0.042111],[51.483715,-0.039514],[51.483629,-0.039332],[51.482953,-0.037959],[51.482556,-0.037315],[51.482223,-0.036864],[51.481826,-0.036435],[51.481429,-0.03606],[51.48114,-0.035824],[51.4807,-0.035513],[51.479262,-0.034568],[51.477256,-0.03312],[51.476333,-0.032422],[51.475904,-0.032133],[51.475829,-0.032068],[51.475046,-0.031521],[51.474724,-0.031328],[51.474445,-0.031114],[51.474037,-0.030706],[51.473758,-0.030416],[51.473512,-0.030148],[51.473072,-0.029622],[51.472782,-0.029257],[51.472213,-0.028485],[51.471698,-0.027734],[51.471215,-0.026983],[51.471194,-0.026897],[51.470904,-0.026361],[51.4707,-0.025953],[51.470271,-0.025009],[51.470014,-0.024408],[51.469488,-0.023249],[51.469274,-0.022788],[51.468984,-0.022112],[51.468383,-0.020567],[51.468254,-0.020224],[51.468147,-0.019977],[51.467428,-0.018411],[51.466505,-0.016115],[51.466355,-0.015664],[51.466055,-0.014859],[51.465797,-0.014001],[51.465792,-0.013977],[51.465411,-0.013926],[51.465261,-0.013754],[51.465057,-0.013551],[51.464821,-0.013368],[51.464585,-0.013218],[51.464489,-0.013175],[51.464263,-0.013089],[51.463984,-0.013025],[51.463877,-0.013014],[51.463609,-0.013014],[51.463341,-0.013025],[51.463062,-0.013089],[51.462804,-0.013218],[51.462396,-0.013518],[51.461914,-0.013969],[51.461549,-0.014194],[51.461077,-0.01442],[51.46069,-0.014527],[51.460401,-0.014527],[51.460079,-0.014484],[51.459961,-0.014441],[51.4598,-0.014398],[51.459521,-0.014248],[51.45907,-0.013926],[51.458942,-0.013819],[51.458556,-0.013475],[51.458448,-0.013325],[51.458373,-0.013196],[51.458244,-0.01296],[51.457955,-0.01236],[51.457804,-0.011995],[51.456646,-0.009066],[51.455627,-0.006716],[51.454865,-0.005214],[51.454564,-0.004656],[51.454296,-0.004206],[51.453985,-0.003691],[51.45347,-0.00295],[51.452891,-0.002232],[51.452451,-0.00147],[51.452204,-0.000998],[51.452134,-0.000861],[51.452011,-0.000622],[51.451839,-0.000225],[51.451753,0],[51.451625,0.000343],[51.451453,0.000815],[51.45126,0.001481],[51.451088,0.002167],[51.45097,0.002822],[51.450831,0.003669],[51.450713,0.004667],[51.450477,0.007027],[51.450412,0.007607],[51.450305,0.008637],[51.450069,0.010793],[51.449876,0.012682],[51.449788,0.013523],[51.449307,0.0181],[51.449114,0.019977],[51.449017,0.02076],[51.4489,0.021662],[51.448771,0.022498],[51.448535,0.023689],[51.448181,0.025223],[51.447848,0.026511],[51.447215,0.028389],[51.446775,0.029526],[51.4464,0.030416],[51.446207,0.030931],[51.444715,0.0346],[51.444426,0.035255],[51.443481,0.037669],[51.442763,0.039439],[51.442022,0.041392],[51.441625,0.042615],[51.441325,0.043699],[51.441261,0.043945],[51.441003,0.045007],[51.440756,0.046209],[51.440585,0.047228],[51.44037,0.04872],[51.440228,0.050081],[51.440188,0.050468],[51.440113,0.051295],[51.439673,0.055393],[51.439168,0.060157],[51.438965,0.061981],[51.438085,0.070231],[51.438051,0.070559],[51.437838,0.072645],[51.43713,0.078374],[51.435885,0.087891],[51.434941,0.095186],[51.434855,0.095862],[51.434373,0.099542],[51.434255,0.100518],[51.434126,0.10172],[51.434061,0.102621],[51.433997,0.103512],[51.433984,0.103826],[51.433965,0.104295],[51.433901,0.10658],[51.433965,0.108597],[51.434029,0.109917],[51.434115,0.111312],[51.434276,0.113232],[51.434877,0.120013],[51.435124,0.123135],[51.435252,0.124337],[51.435376,0.12577],[51.435456,0.126697],[51.435596,0.127963],[51.435832,0.129615],[51.436079,0.131053],[51.436239,0.131836],[51.436476,0.13308],[51.436701,0.134025],[51.436894,0.134754],[51.440235,0.147924],[51.440391,0.148541],[51.440885,0.15015],[51.441175,0.151084],[51.441486,0.151963],[51.441829,0.152961],[51.442054,0.153648],[51.442076,0.153755],[51.442891,0.156995],[51.443396,0.159087],[51.444243,0.162435],[51.444361,0.162864],[51.444426,0.163175],[51.446561,0.171801],[51.447237,0.174623],[51.447537,0.175781],[51.448334,0.17895],[51.448942,0.181371],[51.449683,0.184987],[51.450241,0.188119],[51.450402,0.189053],[51.450638,0.190555],[51.45082,0.191832],[51.450992,0.193452],[51.451067,0.194514],[51.451142,0.195608],[51.451195,0.197561],[51.451185,0.199481],[51.451163,0.200661],[51.451099,0.201745],[51.451013,0.202925],[51.450895,0.204213],[51.450691,0.205951],[51.450445,0.207442],[51.449994,0.209717],[51.44965,0.211884],[51.449532,0.212742],[51.449372,0.213547],[51.449168,0.214384],[51.448749,0.215843],[51.448331,0.216958],[51.447966,0.217903],[51.447805,0.218257],[51.447601,0.218729],[51.44744,0.219296]]},{"id":"g-leg-22","departure":{"lat":51.447369,"lng":0.219276,"type":"stop","_name":"Dartford","time":"2019-01-22T20:10:00.000Z","id":"418103071"},"arrival":{"lat":51.443295,"lng":0.219589,"type":"address","time":"2019-01-22T20:22:00.000Z"},"distance":724,"summary":"Go to 51,0","transport":{"type":"walk","name":"walk"},"steps":[],"geometry":[]}]},{"id":"h-t-route-5-R005ed2-C1","departure":{"lat":51.537354,"lng":-0.383286,"type":"address","time":"2019-01-22T18:38:00.000Z"},"arrival":{"lat":51.443295,"lng":0.219589,"type":"address","time":"2019-01-22T20:46:00.000Z"},"router":{"name":"abstract"},"legs":[{"id":"g-leg-23","departure":{"lat":51.537354,"lng":-0.383286,"type":"address","time":"2019-01-22T18:38:00.000Z"},"arrival":{"lat":51.539192,"lng":-0.385959,"type":"stop","_name":"Bengarth Road Northolt Library (Stop TD)","time":"2019-01-22T18:44:00.000Z","id":"420309244"},"distance":379,"summary":"Go to Bengarth Road Northolt Library (Stop TD)","transport":{"type":"walk","name":"walk"},"steps":[],"geometry":[]},{"id":"g-leg-24","departure":{"lat":51.539192,"lng":-0.385959,"type":"stop","_name":"Bengarth Road Northolt Library (Stop TD)","time":"2019-01-22T18:44:00.000Z","id":"420309244"},"arrival":{"lat":51.547668,"lng":-0.368756,"type":"stop","_name":"Northolt Station (Stop A)","time":"2019-01-22T18:53:00.000Z","id":"420306803"},"summary":"Go to Northolt Station (Stop A)","transport":{"type":"bus","name":"140","headsign":"Harrow Weald"},"steps":[{"lat":51.539192,"lng":-0.385959,"type":"stop","_name":"Bengarth Road Northolt Library (Stop TD)","time":"2019-01-22T18:44:00.000Z","id":"420309244"},{"lat":51.540901,"lng":-0.381976,"type":"stop","_name":"Sycamore Close (Stop TE)","time":"2019-01-22T18:46:00.000Z","id":"420320728"},{"lat":51.542522,"lng":-0.378919,"type":"stop","_name":"Target Roundabout (Stop TF)","time":"2019-01-22T18:47:00.000Z","id":"420320770"},{"lat":51.543949,"lng":-0.375364,"type":"stop","_name":"Kingston Close (Stop TH)","time":"2019-01-22T18:49:00.000Z","id":"420312602"},{"lat":51.54493,"lng":-0.372863,"type":"stop","_name":"Alderney Gardens (Stop TJ)","time":"2019-01-22T18:50:00.000Z","id":"420308313"},{"lat":51.546452,"lng":-0.370458,"type":"stop","_name":"Moat Farm Road (Stop C)","time":"2019-01-22T18:52:00.000Z","id":"420316782"},{"lat":51.547668,"lng":-0.368756,"type":"stop","_name":"Northolt Station (Stop A)","time":"2019-01-22T18:53:00.000Z","id":"420306803"}],"geometry":[[51.539167,-0.385951],[51.539515,-0.384983],[51.53958,-0.384757],[51.539741,-0.38435],[51.540871,-0.381962],[51.541307,-0.381088],[51.541683,-0.380455],[51.54223,-0.379468],[51.542391,-0.379125],[51.542449,-0.3789],[51.542552,-0.378599],[51.542627,-0.378513],[51.542766,-0.37846],[51.542906,-0.378492],[51.543045,-0.378481],[51.543099,-0.378449],[51.543195,-0.378352],[51.543238,-0.378245],[51.543281,-0.378116],[51.543313,-0.37788],[51.543303,-0.377591],[51.543281,-0.377462],[51.543335,-0.377097],[51.543624,-0.376174],[51.543775,-0.375595],[51.544257,-0.373986],[51.544869,-0.372741],[51.545201,-0.372076],[51.545416,-0.371743],[51.546389,-0.370412],[51.546704,-0.370005],[51.547551,-0.368847]]},{"id":"g-leg-25","departure":{"lat":51.547668,"lng":-0.368756,"type":"stop","_name":"Northolt Station (Stop A)","time":"2019-01-22T18:53:00.000Z","id":"420306803"},"arrival":{"lat":51.548458,"lng":-0.369103,"type":"stop","_name":"Northolt","time":"2019-01-22T19:00:00.000Z","id":"420326358"},"distance":196,"summary":"Go to Northolt","transport":{"type":"walk","name":"walk"},"steps":[],"geometry":[]},{"id":"g-leg-26","departure":{"lat":51.548458,"lng":-0.369103,"type":"stop","_name":"Northolt","time":"2019-01-22T19:03:00.000Z","id":"420326358"},"arrival":{"lat":51.51526,"lng":-0.141859,"type":"stop","_name":"Oxford Circus","time":"2019-01-22T19:33:00.000Z","id":"420326372"},"summary":"Go to Oxford Circus","transport":{"type":"subway","name":"Central","color":"#DA2127","headsign":"Hainault"},"steps":[{"lat":51.548458,"lng":-0.369103,"type":"stop","_name":"Northolt","time":"2019-01-22T19:03:00.000Z","id":"420326358"},{"lat":51.542294,"lng":-0.345258,"type":"stop","_name":"Greenford","time":"2019-01-22T19:05:00.000Z","id":"420326215"},{"lat":51.536671,"lng":-0.322776,"type":"stop","_name":"Perivale","time":"2019-01-22T19:07:00.000Z","id":"420326398"},{"lat":51.530331,"lng":-0.293382,"type":"stop","_name":"Hanger Lane","time":"2019-01-22T19:10:00.000Z","id":"420326245"},{"lat":51.523656,"lng":-0.259653,"type":"stop","_name":"North Acton","time":"2019-01-22T19:13:00.000Z","id":"420326341"},{"lat":51.517143,"lng":-0.247868,"type":"stop","_name":"East Acton","time":"2019-01-22T19:15:00.000Z","id":"420326165"},{"lat":51.512042,"lng":-0.223902,"type":"stop","_name":"White City","time":"2019-01-22T19:18:00.000Z","id":"420326508"},{"lat":51.504562,"lng":-0.218105,"type":"stop","_name":"Shepherd's Bush","time":"2019-01-22T19:21:00.000Z","id":"420326426"},{"lat":51.507087,"lng":-0.205703,"type":"stop","_name":"Holland Park","time":"2019-01-22T19:23:00.000Z","id":"420326253"},{"lat":51.509149,"lng":-0.196084,"type":"stop","_name":"Notting Hill Gate","time":"2019-01-22T19:25:00.000Z","id":"420326354"},{"lat":51.510311,"lng":-0.187185,"type":"stop","_name":"Queensway","time":"2019-01-22T19:26:00.000Z","id":"420326404"},{"lat":51.511772,"lng":-0.174661,"type":"stop","_name":"Lancaster Gate","time":"2019-01-22T19:28:00.000Z","id":"420326302"},{"lat":51.513592,"lng":-0.157581,"type":"stop","_name":"Marble Arch","time":"2019-01-22T19:30:00.000Z","id":"420326318"},{"lat":51.5143,"lng":-0.149223,"type":"stop","_name":"Bond Street","time":"2019-01-22T19:31:00.000Z","id":"420326087"},{"lat":51.51526,"lng":-0.141859,"type":"stop","_name":"Oxford Circus","time":"2019-01-22T19:33:00.000Z","id":"420326372"}],"geometry":[[51.548393,-0.369119],[51.548231,-0.368481],[51.547997,-0.367559],[51.547634,-0.366113],[51.547164,-0.364251],[51.546726,-0.362578],[51.545924,-0.359473],[51.545078,-0.356156],[51.544468,-0.353881],[51.544003,-0.352218],[51.543675,-0.35095],[51.543301,-0.349381],[51.542858,-0.347603],[51.542294,-0.345258],[51.542188,-0.344816],[51.54184,-0.343486],[51.541503,-0.342234],[51.54111,-0.340863],[51.540839,-0.339838],[51.540434,-0.338485],[51.540186,-0.337549],[51.539888,-0.336411],[51.539579,-0.335253],[51.539461,-0.334748],[51.539286,-0.333917],[51.539144,-0.333264],[51.539018,-0.332693],[51.538741,-0.331562],[51.538548,-0.330746],[51.538297,-0.32969],[51.538039,-0.328635],[51.53778,-0.327614],[51.537517,-0.326584],[51.537124,-0.325063],[51.536919,-0.324298],[51.536544,-0.322808],[51.536108,-0.321078],[51.535883,-0.320221],[51.535557,-0.318929],[51.535211,-0.317555],[51.534915,-0.316402],[51.53468,-0.31547],[51.534472,-0.314646],[51.534248,-0.313765],[51.533957,-0.312636],[51.533654,-0.311452],[51.533301,-0.310076],[51.532815,-0.308099],[51.532365,-0.306386],[51.532095,-0.305257],[51.53199,-0.304784],[51.531878,-0.304233],[51.53179,-0.303702],[51.531689,-0.303113],[51.53163,-0.302778],[51.531547,-0.302264],[51.531408,-0.301379],[51.531285,-0.300473],[51.531183,-0.299558],[51.531069,-0.298575],[51.53093,-0.297573],[51.530638,-0.29544],[51.530509,-0.294583],[51.530314,-0.293385],[51.530298,-0.293287],[51.529944,-0.291437],[51.529567,-0.289581],[51.529154,-0.287555],[51.528882,-0.286252],[51.528719,-0.285428],[51.528718,-0.285423],[51.528623,-0.284943],[51.52812,-0.282315],[51.527347,-0.278322],[51.526591,-0.274543],[51.526047,-0.271793],[51.525583,-0.269361],[51.525084,-0.266762],[51.525018,-0.266298],[51.524978,-0.266058],[51.524932,-0.265821],[51.52479,-0.265106],[51.524602,-0.264243],[51.52387,-0.260624],[51.523656,-0.259653],[51.523469,-0.258805],[51.523387,-0.258433],[51.5233,-0.258062],[51.523159,-0.257497],[51.52309,-0.257214],[51.523026,-0.256932],[51.522685,-0.25542],[51.522557,-0.254915],[51.522425,-0.254488],[51.522304,-0.254144],[51.52217,-0.25381],[51.522049,-0.253516],[51.521927,-0.253245],[51.521825,-0.253042],[51.521713,-0.252846],[51.521606,-0.252665],[51.521488,-0.252485],[51.521348,-0.252286],[51.521198,-0.252092],[51.520946,-0.251789],[51.520841,-0.251667],[51.520739,-0.251555],[51.52055,-0.251356],[51.520214,-0.251009],[51.519788,-0.250591],[51.519608,-0.250399],[51.518495,-0.249287],[51.517353,-0.248113],[51.517162,-0.247905],[51.517136,-0.247874],[51.516989,-0.247702],[51.516799,-0.24745],[51.516683,-0.247284],[51.516571,-0.247116],[51.516395,-0.246833],[51.516237,-0.246555],[51.516121,-0.24631],[51.51601,-0.246048],[51.515878,-0.245733],[51.515762,-0.245422],[51.515647,-0.245075],[51.515546,-0.244717],[51.51547,-0.244358],[51.515397,-0.243954],[51.515346,-0.243619],[51.515303,-0.243256],[51.515281,-0.243032],[51.515263,-0.242787],[51.515246,-0.242478],[51.515242,-0.242176],[51.515243,-0.242001],[51.51525,-0.241813],[51.515264,-0.24155],[51.515329,-0.2406],[51.515386,-0.239735],[51.515503,-0.238427],[51.515555,-0.237768],[51.515658,-0.236555],[51.515683,-0.236265],[51.515703,-0.235977],[51.515715,-0.235686],[51.515713,-0.235268],[51.51572,-0.234897],[51.515735,-0.234508],[51.515754,-0.234315],[51.515778,-0.234116],[51.515813,-0.233906],[51.515851,-0.233712],[51.515885,-0.233508],[51.515918,-0.233283],[51.515964,-0.232892],[51.516005,-0.232518],[51.516038,-0.232078],[51.51606,-0.231673],[51.516068,-0.231284],[51.516071,-0.230807],[51.516058,-0.230306],[51.516027,-0.229827],[51.515968,-0.229201],[51.515877,-0.228573],[51.515784,-0.228053],[51.515694,-0.227636],[51.515578,-0.227198],[51.515498,-0.226919],[51.515423,-0.226677],[51.515324,-0.226378],[51.515227,-0.2261],[51.51516,-0.22593],[51.515072,-0.225745],[51.515006,-0.225616],[51.514935,-0.225503],[51.514863,-0.225407],[51.514792,-0.225324],[51.514682,-0.225211],[51.514563,-0.225106],[51.514457,-0.225027],[51.514352,-0.224954],[51.514209,-0.22487],[51.514057,-0.224802],[51.513778,-0.224687],[51.513196,-0.224444],[51.512042,-0.223902],[51.510404,-0.223132],[51.505323,-0.220677],[51.505162,-0.220593],[51.505007,-0.220499],[51.504935,-0.220447],[51.504864,-0.220391],[51.504789,-0.22033],[51.504722,-0.220267],[51.504663,-0.220199],[51.504605,-0.220125],[51.504555,-0.220055],[51.504506,-0.219975],[51.504464,-0.219895],[51.504427,-0.219806],[51.504395,-0.219714],[51.504365,-0.219613],[51.504345,-0.219533],[51.504326,-0.219445],[51.504307,-0.219352],[51.504294,-0.21925],[51.504287,-0.219175],[51.504284,-0.2191],[51.504286,-0.218946],[51.504288,-0.218669],[51.5043,-0.218435],[51.504315,-0.218198],[51.504326,-0.218083],[51.504337,-0.217963],[51.504366,-0.217729],[51.504405,-0.217498],[51.504454,-0.217278],[51.504562,-0.216844],[51.506234,-0.209113],[51.506926,-0.206271],[51.507087,-0.205703],[51.507424,-0.204505],[51.507825,-0.202838],[51.508223,-0.201181],[51.508295,-0.200848],[51.508542,-0.199472],[51.508789,-0.198089],[51.508856,-0.19771],[51.508929,-0.197296],[51.508984,-0.196982],[51.509043,-0.196642],[51.509103,-0.196326],[51.509149,-0.196083],[51.509171,-0.195961],[51.509219,-0.195704],[51.509267,-0.195449],[51.509523,-0.194096],[51.509715,-0.193047],[51.50993,-0.191877],[51.50999,-0.191372],[51.510036,-0.190822],[51.510115,-0.189377],[51.510236,-0.187267],[51.510244,-0.187179],[51.510311,-0.186446],[51.510504,-0.184551],[51.510946,-0.180879],[51.511359,-0.177536],[51.511695,-0.175083],[51.511742,-0.174658],[51.512894,-0.164125],[51.513067,-0.16208],[51.513229,-0.159777],[51.513457,-0.157723],[51.513474,-0.157569],[51.513642,-0.155945],[51.513813,-0.153777],[51.514224,-0.149912],[51.5143,-0.149223],[51.5143,-0.149223],[51.514741,-0.14595],[51.515012,-0.143814],[51.51526,-0.141859]]},{"id":"g-leg-27","departure":{"lat":51.51526,"lng":-0.141859,"type":"stop","_name":"Oxford Circus","time":"2019-01-22T19:37:00.000Z","id":"420326372"},"arrival":{"lat":51.507402,"lng":-0.12772,"type":"stop","_name":"Charing Cross","time":"2019-01-22T19:40:00.000Z","id":"420326127"},"summary":"Go to Charing Cross","transport":{"type":"subway","name":"Bakerloo","color":"#884D28","headsign":"Elephant & Castle"},"steps":[{"lat":51.51526,"lng":-0.141859,"type":"stop","_name":"Oxford Circus","time":"2019-01-22T19:37:00.000Z","id":"420326372"},{"lat":51.509443,"lng":-0.135491,"type":"stop","_name":"Piccadilly Circus","time":"2019-01-22T19:39:00.000Z","id":"420326384"},{"lat":51.507402,"lng":-0.12772,"type":"stop","_name":"Charing Cross","time":"2019-01-22T19:40:00.000Z","id":"420326127"}],"geometry":[[51.51526,-0.141859],[51.51526,-0.141859],[51.514696,-0.141716],[51.514587,-0.141685],[51.514484,-0.141644],[51.514138,-0.141463],[51.513935,-0.141333],[51.513716,-0.141177],[51.513499,-0.141004],[51.512279,-0.139919],[51.510874,-0.138667],[51.510795,-0.138597],[51.510728,-0.138529],[51.510644,-0.138443],[51.510569,-0.138354],[51.510505,-0.138264],[51.510444,-0.138161],[51.51039,-0.138042],[51.510343,-0.137936],[51.510063,-0.137176],[51.509749,-0.136325],[51.509588,-0.135885],[51.509443,-0.135491],[51.509182,-0.134805],[51.508911,-0.134097],[51.508495,-0.132906],[51.508105,-0.131707],[51.507948,-0.131169],[51.507809,-0.130567],[51.507705,-0.130041],[51.507619,-0.129496],[51.507498,-0.128519],[51.50746,-0.128128],[51.507454,-0.128085],[51.507399,-0.12772]]},{"id":"g-leg-28","departure":{"lat":51.507402,"lng":-0.12772,"type":"stop","_name":"Charing Cross","time":"2019-01-22T19:40:00.000Z","id":"420326127"},"arrival":{"lat":51.508026,"lng":-0.124777,"type":"stop","_name":"London Charing Cross","time":"2019-01-22T19:47:00.000Z","id":"418102902"},"distance":255,"summary":"Go to London Charing Cross","transport":{"type":"walk","name":"walk"},"steps":[],"geometry":[]},{"id":"g-leg-29","departure":{"lat":51.508026,"lng":-0.124777,"type":"stop","_name":"London Charing Cross","time":"2019-01-22T19:48:00.000Z","id":"418102902"},"arrival":{"lat":51.447369,"lng":0.219276,"type":"stop","_name":"Dartford","time":"2019-01-22T20:34:00.000Z","id":"418103071"},"summary":"Go to Dartford","transport":{"type":"train","name":"Dartford - London Charing Cross","color":"#1B1650","headsign":"Dartford"},"steps":[{"lat":51.508026,"lng":-0.124777,"type":"stop","_name":"London Charing Cross","time":"2019-01-22T19:48:00.000Z","id":"418102902"},{"lat":51.504074,"lng":-0.108873,"type":"stop","_name":"London Waterloo East","time":"2019-01-22T19:50:00.000Z","id":"418104942"},{"lat":51.505108,"lng":-0.086062,"type":"stop","_name":"London Bridge","time":"2019-01-22T19:55:00.000Z","id":"418103857"},{"lat":51.452023,"lng":-0.000918,"type":"stop","_name":"Hither Green","time":"2019-01-22T20:06:00.000Z","id":"418103620"},{"lat":51.449753,"lng":0.013519,"type":"stop","_name":"Lee","time":"2019-01-22T20:09:00.000Z","id":"418103795"},{"lat":51.440216,"lng":0.05008,"type":"stop","_name":"Mottingham","time":"2019-01-22T20:12:00.000Z","id":"418104013"},{"lat":51.438057,"lng":0.07056,"type":"stop","_name":"New Eltham","time":"2019-01-22T20:14:00.000Z","id":"418104123"},{"lat":51.433868,"lng":0.103821,"type":"stop","_name":"Sidcup","time":"2019-01-22T20:18:00.000Z","id":"418104502"},{"lat":51.435452,"lng":0.125763,"type":"stop","_name":"Albany Park","time":"2019-01-22T20:21:00.000Z","id":"418102429"},{"lat":51.440216,"lng":0.147929,"type":"stop","_name":"Bexley","time":"2019-01-22T20:23:00.000Z","id":"418102601"},{"lat":51.44828,"lng":0.178963,"type":"stop","_name":"Crayford","time":"2019-01-22T20:26:00.000Z","id":"418103005"},{"lat":51.447369,"lng":0.219276,"type":"stop","_name":"Dartford","time":"2019-01-22T20:34:00.000Z","id":"418103071"}],"geometry":[[51.507994,-0.124723],[51.507744,-0.12433],[51.50753,-0.123974],[51.507307,-0.123532],[51.507189,-0.123253],[51.5069,-0.122631],[51.506717,-0.122223],[51.506631,-0.121987],[51.506599,-0.121901],[51.506106,-0.120442],[51.50544,-0.118232],[51.505387,-0.118049],[51.504925,-0.116086],[51.504711,-0.115324],[51.504443,-0.114445],[51.5044,-0.114294],[51.504303,-0.114015],[51.504142,-0.113415],[51.504046,-0.113018],[51.50396,-0.112567],[51.503906,-0.111891],[51.503906,-0.111784],[51.503885,-0.111301],[51.503885,-0.111194],[51.503853,-0.110367],[51.503863,-0.110217],[51.503906,-0.109863],[51.504032,-0.108868],[51.504035,-0.108844],[51.504228,-0.107621],[51.50426,-0.107331],[51.504271,-0.106591],[51.504196,-0.104778],[51.504185,-0.104542],[51.504153,-0.102235],[51.504099,-0.101495],[51.504035,-0.10083],[51.504046,-0.099682],[51.504067,-0.098738],[51.504185,-0.09569],[51.504185,-0.095497],[51.504228,-0.094886],[51.504303,-0.094317],[51.504368,-0.093899],[51.504518,-0.093352],[51.504582,-0.093137],[51.504689,-0.092901],[51.504853,-0.092405],[51.505108,-0.091635],[51.50529,-0.091056],[51.505419,-0.090616],[51.505483,-0.090369],[51.505555,-0.08999],[51.505652,-0.089358],[51.505747,-0.088824],[51.505786,-0.088567],[51.505824,-0.088215],[51.505838,-0.087915],[51.505833,-0.087639],[51.505809,-0.087344],[51.505747,-0.086973],[51.505657,-0.08664],[51.505562,-0.086345],[51.505433,-0.08604],[51.505295,-0.085783],[51.505124,-0.085526],[51.503868,-0.083808],[51.503659,-0.083492],[51.503439,-0.083118],[51.503235,-0.082738],[51.502716,-0.081624],[51.502415,-0.08096],[51.502114,-0.080305],[51.501761,-0.079565],[51.501246,-0.078546],[51.501063,-0.078192],[51.500022,-0.076271],[51.499089,-0.074533],[51.498671,-0.073782],[51.498134,-0.072709],[51.497748,-0.072087],[51.496654,-0.069877],[51.496192,-0.068911],[51.495795,-0.068074],[51.495237,-0.066841],[51.494518,-0.065242],[51.494443,-0.065081],[51.493532,-0.063096],[51.492534,-0.060822],[51.492287,-0.060264],[51.490796,-0.056938],[51.49013,-0.055382],[51.489991,-0.055017],[51.489455,-0.053623],[51.488961,-0.052325],[51.488725,-0.051649],[51.48865,-0.051488],[51.488081,-0.050307],[51.487309,-0.048494],[51.486912,-0.047497],[51.486643,-0.046821],[51.485946,-0.045147],[51.485474,-0.043945],[51.485378,-0.04372],[51.484938,-0.042593],[51.484745,-0.042111],[51.483715,-0.039514],[51.483629,-0.039332],[51.482953,-0.037959],[51.482556,-0.037315],[51.482223,-0.036864],[51.481826,-0.036435],[51.481429,-0.03606],[51.48114,-0.035824],[51.4807,-0.035513],[51.479262,-0.034568],[51.477256,-0.03312],[51.476333,-0.032422],[51.475904,-0.032133],[51.475829,-0.032068],[51.475046,-0.031521],[51.474724,-0.031328],[51.474445,-0.031114],[51.474037,-0.030706],[51.473758,-0.030416],[51.473512,-0.030148],[51.473072,-0.029622],[51.472782,-0.029257],[51.472213,-0.028485],[51.471698,-0.027734],[51.471215,-0.026983],[51.471194,-0.026897],[51.470904,-0.026361],[51.4707,-0.025953],[51.470271,-0.025009],[51.470014,-0.024408],[51.469488,-0.023249],[51.469274,-0.022788],[51.468984,-0.022112],[51.468383,-0.020567],[51.468254,-0.020224],[51.468147,-0.019977],[51.467428,-0.018411],[51.466505,-0.016115],[51.466355,-0.015664],[51.466055,-0.014859],[51.465797,-0.014001],[51.465792,-0.013977],[51.465411,-0.013926],[51.465261,-0.013754],[51.465057,-0.013551],[51.464821,-0.013368],[51.464585,-0.013218],[51.464489,-0.013175],[51.464263,-0.013089],[51.463984,-0.013025],[51.463877,-0.013014],[51.463609,-0.013014],[51.463341,-0.013025],[51.463062,-0.013089],[51.462804,-0.013218],[51.462396,-0.013518],[51.461914,-0.013969],[51.461549,-0.014194],[51.461077,-0.01442],[51.46069,-0.014527],[51.460401,-0.014527],[51.460079,-0.014484],[51.459961,-0.014441],[51.4598,-0.014398],[51.459521,-0.014248],[51.45907,-0.013926],[51.458942,-0.013819],[51.458556,-0.013475],[51.458448,-0.013325],[51.458373,-0.013196],[51.458244,-0.01296],[51.457955,-0.01236],[51.457804,-0.011995],[51.456646,-0.009066],[51.455627,-0.006716],[51.454865,-0.005214],[51.454564,-0.004656],[51.454296,-0.004206],[51.453985,-0.003691],[51.45347,-0.00295],[51.452891,-0.002232],[51.452451,-0.00147],[51.452204,-0.000998],[51.452134,-0.000861],[51.452011,-0.000622],[51.451839,-0.000225],[51.451753,0],[51.451625,0.000343],[51.451453,0.000815],[51.45126,0.001481],[51.451088,0.002167],[51.45097,0.002822],[51.450831,0.003669],[51.450713,0.004667],[51.450477,0.007027],[51.450412,0.007607],[51.450305,0.008637],[51.450069,0.010793],[51.449876,0.012682],[51.449788,0.013523],[51.449307,0.0181],[51.449114,0.019977],[51.449017,0.02076],[51.4489,0.021662],[51.448771,0.022498],[51.448535,0.023689],[51.448181,0.025223],[51.447848,0.026511],[51.447215,0.028389],[51.446775,0.029526],[51.4464,0.030416],[51.446207,0.030931],[51.444715,0.0346],[51.444426,0.035255],[51.443481,0.037669],[51.442763,0.039439],[51.442022,0.041392],[51.441625,0.042615],[51.441325,0.043699],[51.441261,0.043945],[51.441003,0.045007],[51.440756,0.046209],[51.440585,0.047228],[51.44037,0.04872],[51.440228,0.050081],[51.440188,0.050468],[51.440113,0.051295],[51.439673,0.055393],[51.439168,0.060157],[51.438965,0.061981],[51.438085,0.070231],[51.438051,0.070559],[51.437838,0.072645],[51.43713,0.078374],[51.435885,0.087891],[51.434941,0.095186],[51.434855,0.095862],[51.434373,0.099542],[51.434255,0.100518],[51.434126,0.10172],[51.434061,0.102621],[51.433997,0.103512],[51.433984,0.103826],[51.433965,0.104295],[51.433901,0.10658],[51.433965,0.108597],[51.434029,0.109917],[51.434115,0.111312],[51.434276,0.113232],[51.434877,0.120013],[51.435124,0.123135],[51.435252,0.124337],[51.435376,0.12577],[51.435456,0.126697],[51.435596,0.127963],[51.435832,0.129615],[51.436079,0.131053],[51.436239,0.131836],[51.436476,0.13308],[51.436701,0.134025],[51.436894,0.134754],[51.440235,0.147924],[51.440391,0.148541],[51.440885,0.15015],[51.441175,0.151084],[51.441486,0.151963],[51.441829,0.152961],[51.442054,0.153648],[51.442076,0.153755],[51.442891,0.156995],[51.443396,0.159087],[51.444243,0.162435],[51.444361,0.162864],[51.444426,0.163175],[51.446561,0.171801],[51.447237,0.174623],[51.447537,0.175781],[51.448334,0.17895],[51.448942,0.181371],[51.449683,0.184987],[51.450241,0.188119],[51.450402,0.189053],[51.450638,0.190555],[51.45082,0.191832],[51.450992,0.193452],[51.451067,0.194514],[51.451142,0.195608],[51.451195,0.197561],[51.451185,0.199481],[51.451163,0.200661],[51.451099,0.201745],[51.451013,0.202925],[51.450895,0.204213],[51.450691,0.205951],[51.450445,0.207442],[51.449994,0.209717],[51.44965,0.211884],[51.449532,0.212742],[51.449372,0.213547],[51.449168,0.214384],[51.448749,0.215843],[51.448331,0.216958],[51.447966,0.217903],[51.447805,0.218257],[51.447601,0.218729],[51.44744,0.219296]]},{"id":"g-leg-30","departure":{"lat":51.447369,"lng":0.219276,"type":"stop","_name":"Dartford","time":"2019-01-22T20:34:00.000Z","id":"418103071"},"arrival":{"lat":51.443295,"lng":0.219589,"type":"address","time":"2019-01-22T20:46:00.000Z"},"distance":724,"summary":"Go to 51,0","transport":{"type":"walk","name":"walk"},"steps":[],"geometry":[]}]},{"id":"h-t-route-6-R005ed2-C2","departure":{"lat":51.537354,"lng":-0.383286,"type":"address","time":"2019-01-22T18:25:00.000Z"},"arrival":{"lat":51.443295,"lng":0.219589,"type":"address","time":"2019-01-22T20:52:00.000Z"},"router":{"name":"abstract"},"legs":[{"id":"g-leg-31","departure":{"lat":51.537354,"lng":-0.383286,"type":"address","time":"2019-01-22T18:25:00.000Z"},"arrival":{"lat":51.539192,"lng":-0.385959,"type":"stop","_name":"Bengarth Road Northolt Library (Stop TD)","time":"2019-01-22T18:31:00.000Z","id":"420309244"},"distance":379,"summary":"Go to Bengarth Road Northolt Library (Stop TD)","transport":{"type":"walk","name":"walk"},"steps":[],"geometry":[]},{"id":"g-leg-32","departure":{"lat":51.539192,"lng":-0.385959,"type":"stop","_name":"Bengarth Road Northolt Library (Stop TD)","time":"2019-01-22T18:31:00.000Z","id":"420309244"},"arrival":{"lat":51.592297,"lng":-0.334053,"type":"stop","_name":"Harrow & Wealdstone Station (Stop N)","time":"2019-01-22T19:05:00.000Z","id":"420323403"},"summary":"Go to Harrow & Wealdstone Station (Stop N)","transport":{"type":"bus","name":"140","headsign":"Harrow Weald"},"steps":[{"lat":51.539192,"lng":-0.385959,"type":"stop","_name":"Bengarth Road Northolt Library (Stop TD)","time":"2019-01-22T18:31:00.000Z","id":"420309244"},{"lat":51.540901,"lng":-0.381976,"type":"stop","_name":"Sycamore Close (Stop TE)","time":"2019-01-22T18:33:00.000Z","id":"420320728"},{"lat":51.542522,"lng":-0.378919,"type":"stop","_name":"Target Roundabout (Stop TF)","time":"2019-01-22T18:35:00.000Z","id":"420320770"},{"lat":51.543949,"lng":-0.375364,"type":"stop","_name":"Kingston Close (Stop TH)","time":"2019-01-22T18:37:00.000Z","id":"420312602"},{"lat":51.54493,"lng":-0.372863,"type":"stop","_name":"Alderney Gardens (Stop TJ)","time":"2019-01-22T18:38:00.000Z","id":"420308313"},{"lat":51.546452,"lng":-0.370458,"type":"stop","_name":"Moat Farm Road (Stop C)","time":"2019-01-22T18:39:00.000Z","id":"420316782"},{"lat":51.547668,"lng":-0.368756,"type":"stop","_name":"Northolt Station (Stop A)","time":"2019-01-22T18:41:00.000Z","id":"420306803"},{"lat":51.54977,"lng":-0.3647,"type":"stop","_name":"Castle Road (Stop E)","time":"2019-01-22T18:42:00.000Z","id":"420323330"},{"lat":51.551952,"lng":-0.360453,"type":"stop","_name":"Wood End Lane (Stop NA)","time":"2019-01-22T18:43:00.000Z","id":"420322921"},{"lat":51.556023,"lng":-0.361677,"type":"stop","_name":"Danemead Grove (Stop NB)","time":"2019-01-22T18:45:00.000Z","id":"420311787"},{"lat":51.558838,"lng":-0.360249,"type":"stop","_name":"Station Parade (Stop NC)","time":"2019-01-22T18:46:00.000Z","id":"420308344"},{"lat":51.560627,"lng":-0.358309,"type":"stop","_name":"St Gabriels Church South Harrow (Stop ND)","time":"2019-01-22T18:47:00.000Z","id":"420320204"},{"lat":51.562466,"lng":-0.356223,"type":"stop","_name":"Corbins Lane (Stop H)","time":"2019-01-22T18:48:00.000Z","id":"420323317"},{"lat":51.564556,"lng":-0.353954,"type":"stop","_name":"South Harrow (Stop F)","time":"2019-01-22T18:49:00.000Z","id":"420306936"},{"lat":51.568504,"lng":-0.34804,"type":"stop","_name":"Grange Road (Stop Rd)","time":"2019-01-22T18:50:00.000Z","id":"420319442"},{"lat":51.570396,"lng":-0.350987,"type":"stop","_name":"Dudley Road (Stop WP)","time":"2019-01-22T18:51:00.000Z","id":"420312082"},{"lat":51.572693,"lng":-0.353112,"type":"stop","_name":"Porlock Avenue (Stop WR)","time":"2019-01-22T18:52:00.000Z","id":"420318269"},{"lat":51.575718,"lng":-0.348803,"type":"stop","_name":"Treve Avenue Whitmore Road (Stop WS)","time":"2019-01-22T18:53:00.000Z","id":"420321656"},{"lat":51.577309,"lng":-0.343694,"type":"stop","_name":"Lascelles Avenue (Stop WT)","time":"2019-01-22T18:54:00.000Z","id":"420315570"},{"lat":51.581024,"lng":-0.339445,"type":"stop","_name":"St Georges Centre (Stop X1)","time":"2019-01-22T18:57:00.000Z","id":"420320206"},{"lat":51.579971,"lng":-0.337391,"type":"stop","_name":"Harrow Bus Station (Stop A)","time":"2019-01-22T18:58:00.000Z","id":"420314117"},{"lat":51.580795,"lng":-0.334012,"type":"stop","_name":"Harrow Town Centre (Stop T)","time":"2019-01-22T18:59:00.000Z","id":"420314158"},{"lat":51.581745,"lng":-0.333111,"type":"stop","_name":"Harrow Town Cen Sheepcote Rd (Stop R)","time":"2019-01-22T18:59:00.000Z","id":"420314157"},{"lat":51.586632,"lng":-0.332268,"type":"stop","_name":"Safari Cinema (Stop W)","time":"2019-01-22T19:02:00.000Z","id":"420319210"},{"lat":51.58971,"lng":-0.332878,"type":"stop","_name":"Harrow Civic Centre Harrow Mosque (Stop K)","time":"2019-01-22T19:03:00.000Z","id":"420314122"},{"lat":51.592297,"lng":-0.334053,"type":"stop","_name":"Harrow & Wealdstone Station (Stop N)","time":"2019-01-22T19:05:00.000Z","id":"420323403"}],"geometry":[[51.539167,-0.385951],[51.539515,-0.384983],[51.53958,-0.384757],[51.539741,-0.38435],[51.540871,-0.381962],[51.541307,-0.381088],[51.541683,-0.380455],[51.54223,-0.379468],[51.542391,-0.379125],[51.542449,-0.3789],[51.542552,-0.378599],[51.542627,-0.378513],[51.542766,-0.37846],[51.542906,-0.378492],[51.543045,-0.378481],[51.543099,-0.378449],[51.543195,-0.378352],[51.543238,-0.378245],[51.543281,-0.378116],[51.543313,-0.37788],[51.543303,-0.377591],[51.543281,-0.377462],[51.543335,-0.377097],[51.543624,-0.376174],[51.543775,-0.375595],[51.544257,-0.373986],[51.544869,-0.372741],[51.545201,-0.372076],[51.545416,-0.371743],[51.546389,-0.370412],[51.546704,-0.370005],[51.547551,-0.368847],[51.548173,-0.367988],[51.548635,-0.367312],[51.54886,-0.366948],[51.549032,-0.366604],[51.54916,-0.366272],[51.549722,-0.364683],[51.550727,-0.361873],[51.550909,-0.361487],[51.551092,-0.361186],[51.551338,-0.360854],[51.551585,-0.360586],[51.551843,-0.360424],[51.552122,-0.360285],[51.552326,-0.360231],[51.552562,-0.360199],[51.55328,-0.360146],[51.554418,-0.360081],[51.554707,-0.360049],[51.554943,-0.359995],[51.554986,-0.360103],[51.555072,-0.360156],[51.555254,-0.360317],[51.555405,-0.360489],[51.555705,-0.361004],[51.555995,-0.361455],[51.556317,-0.361862],[51.556413,-0.361916],[51.557035,-0.362216],[51.557164,-0.362259],[51.557261,-0.362238],[51.557347,-0.362173],[51.557411,-0.362098],[51.55784,-0.361497],[51.558462,-0.360725],[51.558892,-0.360156],[51.559246,-0.359695],[51.560072,-0.358826],[51.560575,-0.358263],[51.560887,-0.357935],[51.561681,-0.357034],[51.562411,-0.356165],[51.563634,-0.354835],[51.564095,-0.354245],[51.564224,-0.354116],[51.564245,-0.354159],[51.564267,-0.35417],[51.564299,-0.354159],[51.564331,-0.354073],[51.564299,-0.353977],[51.564771,-0.352957],[51.564975,-0.352582],[51.565275,-0.352163],[51.565694,-0.35167],[51.566305,-0.350908],[51.566788,-0.350254],[51.566852,-0.350189],[51.566981,-0.350125],[51.567024,-0.3502],[51.567088,-0.350168],[51.567099,-0.350125],[51.567088,-0.350039],[51.56755,-0.34932],[51.568387,-0.348118],[51.56903,-0.347239],[51.569588,-0.348784],[51.569856,-0.349438],[51.57005,-0.349889],[51.570539,-0.350918],[51.57079,-0.351391],[51.571219,-0.352142],[51.571777,-0.353075],[51.572131,-0.353612],[51.572099,-0.353665],[51.572077,-0.353762],[51.572088,-0.353848],[51.57212,-0.353923],[51.572217,-0.353977],[51.572313,-0.353934],[51.572335,-0.353848],[51.572345,-0.353783],[51.572335,-0.353708],[51.572281,-0.353601],[51.572635,-0.353075],[51.573965,-0.350897],[51.574094,-0.350726],[51.574384,-0.350404],[51.574534,-0.350275],[51.574835,-0.350103],[51.574995,-0.349996],[51.575135,-0.349878],[51.575264,-0.349674],[51.575392,-0.349384],[51.575618,-0.348767],[51.576101,-0.347443],[51.576358,-0.34667],[51.577268,-0.343683],[51.577313,-0.343527],[51.577377,-0.343162],[51.57742,-0.34314],[51.577442,-0.343097],[51.577452,-0.343044],[51.577442,-0.342979],[51.577957,-0.342647],[51.578193,-0.342572],[51.57874,-0.342475],[51.578858,-0.342421],[51.579008,-0.342325],[51.579105,-0.34225],[51.579158,-0.342185],[51.579459,-0.3421],[51.579502,-0.3421],[51.579544,-0.342068],[51.580017,-0.341971],[51.580167,-0.34196],[51.580285,-0.341992],[51.58051,-0.34211],[51.580542,-0.342153],[51.580607,-0.342175],[51.580671,-0.342153],[51.580714,-0.3421],[51.580725,-0.341939],[51.580714,-0.341874],[51.580682,-0.341821],[51.580617,-0.341778],[51.580253,-0.34181],[51.580102,-0.341703],[51.580038,-0.341617],[51.579995,-0.341488],[51.579931,-0.341091],[51.579931,-0.340372],[51.580907,-0.34048],[51.580999,-0.339443],[51.581068,-0.338666],[51.581068,-0.338495],[51.580982,-0.338441],[51.580832,-0.338388],[51.580596,-0.338377],[51.580199,-0.338323],[51.580124,-0.338248],[51.580109,-0.337385],[51.579974,-0.333989],[51.580414,-0.334021],[51.58051,-0.33401],[51.580703,-0.333956],[51.580939,-0.333806],[51.581368,-0.333442],[51.581691,-0.333065],[51.582055,-0.332648],[51.582119,-0.332594],[51.582334,-0.332326],[51.582795,-0.3318],[51.582924,-0.331596],[51.58301,-0.331639],[51.583182,-0.331693],[51.584233,-0.331993],[51.58478,-0.332186],[51.585059,-0.332251],[51.585542,-0.332304],[51.585993,-0.332304],[51.586154,-0.332283],[51.586603,-0.332161],[51.587119,-0.332058],[51.587259,-0.332058],[51.587398,-0.332079],[51.588374,-0.332379],[51.588739,-0.332508],[51.58919,-0.332723],[51.589318,-0.332766],[51.589576,-0.332798],[51.58978,-0.332776],[51.589962,-0.332755],[51.590252,-0.332798],[51.590574,-0.332948],[51.590885,-0.333173],[51.591121,-0.333259],[51.591271,-0.33327],[51.591904,-0.333216],[51.592341,-0.334028]]},{"id":"g-leg-33","departure":{"lat":51.592297,"lng":-0.334053,"type":"stop","_name":"Harrow & Wealdstone Station (Stop N)","time":"2019-01-22T19:05:00.000Z","id":"420323403"},"arrival":{"lat":51.5923,"lng":-0.334968,"type":"stop","_name":"Harrow & Wealdstone","time":"2019-01-22T19:10:00.000Z","id":"420326234"},"distance":63,"summary":"Go to Harrow & Wealdstone","transport":{"type":"walk","name":"walk"},"steps":[],"geometry":[]},{"id":"g-leg-34","departure":{"lat":51.5923,"lng":-0.334968,"type":"stop","_name":"Harrow & Wealdstone","time":"2019-01-22T19:12:00.000Z","id":"420326234"},"arrival":{"lat":51.507402,"lng":-0.12772,"type":"stop","_name":"Charing Cross","time":"2019-01-22T19:55:00.000Z","id":"420326127"},"summary":"Go to Charing Cross","transport":{"type":"subway","name":"Bakerloo","color":"#884D28","headsign":"Elephant & Castle"},"steps":[{"lat":51.5923,"lng":-0.334968,"type":"stop","_name":"Harrow & Wealdstone","time":"2019-01-22T19:12:00.000Z","id":"420326234"},{"lat":51.581975,"lng":-0.31689,"type":"stop","_name":"Kenton","time":"2019-01-22T19:14:00.000Z","id":"420326277"},{"lat":51.570343,"lng":-0.308536,"type":"stop","_name":"South Kenton","time":"2019-01-22T19:16:00.000Z","id":"420326447"},{"lat":51.562565,"lng":-0.303711,"type":"stop","_name":"North Wembley","time":"2019-01-22T19:18:00.000Z","id":"420326364"},{"lat":51.552069,"lng":-0.29651,"type":"stop","_name":"Wembley Central","time":"2019-01-22T19:20:00.000Z","id":"420326554"},{"lat":51.543971,"lng":-0.27581,"type":"stop","_name":"Stonebridge Park","time":"2019-01-22T19:22:00.000Z","id":"420326435"},{"lat":51.53629,"lng":-0.257632,"type":"stop","_name":"Harlesden","time":"2019-01-22T19:25:00.000Z","id":"420326264"},{"lat":51.532497,"lng":-0.244466,"type":"stop","_name":"Willesden Junction","time":"2019-01-22T19:27:00.000Z","id":"420326520"},{"lat":51.530532,"lng":-0.22493,"type":"stop","_name":"Kensal Green","time":"2019-01-22T19:29:00.000Z","id":"420326286"},{"lat":51.534052,"lng":-0.205223,"type":"stop","_name":"Queen's Park","time":"2019-01-22T19:34:00.000Z","id":"420326402"},{"lat":51.535145,"lng":-0.193912,"type":"stop","_name":"Kilburn Park","time":"2019-01-22T19:37:00.000Z","id":"420326283"},{"lat":51.529568,"lng":-0.185526,"type":"stop","_name":"Maida Vale","time":"2019-01-22T19:39:00.000Z","id":"420326338"},{"lat":51.522972,"lng":-0.183078,"type":"stop","_name":"Warwick Avenue","time":"2019-01-22T19:41:00.000Z","id":"420326521"},{"lat":51.515396,"lng":-0.175951,"type":"stop","_name":"Paddington","time":"2019-01-22T19:43:00.000Z","id":"420326378"},{"lat":51.520523,"lng":-0.170225,"type":"stop","_name":"Edgware Road","time":"2019-01-22T19:44:00.000Z","id":"420326189"},{"lat":51.522215,"lng":-0.163412,"type":"stop","_name":"Marylebone","time":"2019-01-22T19:46:00.000Z","id":"420326339"},{"lat":51.523157,"lng":-0.157692,"type":"stop","_name":"Baker Street","time":"2019-01-22T19:47:00.000Z","id":"420326103"},{"lat":51.523102,"lng":-0.146308,"type":"stop","_name":"Regent's Park","time":"2019-01-22T19:49:00.000Z","id":"420326406"},{"lat":51.51526,"lng":-0.141859,"type":"stop","_name":"Oxford Circus","time":"2019-01-22T19:51:00.000Z","id":"420326372"},{"lat":51.509443,"lng":-0.135491,"type":"stop","_name":"Piccadilly Circus","time":"2019-01-22T19:54:00.000Z","id":"420326384"},{"lat":51.507402,"lng":-0.12772,"type":"stop","_name":"Charing Cross","time":"2019-01-22T19:55:00.000Z","id":"420326127"}],"geometry":[[51.592299,-0.334968],[51.587569,-0.325282],[51.586199,-0.322841],[51.584921,-0.320756],[51.583815,-0.319193],[51.582216,-0.317168],[51.581975,-0.31689],[51.580874,-0.315624],[51.58026,-0.314995],[51.579681,-0.314432],[51.579006,-0.313831],[51.578354,-0.313297],[51.57773,-0.312838],[51.57714,-0.312397],[51.575834,-0.311555],[51.570405,-0.308377],[51.562565,-0.30371],[51.562553,-0.303703],[51.557331,-0.300656],[51.556434,-0.300071],[51.555892,-0.299705],[51.555332,-0.299318],[51.554752,-0.298889],[51.554199,-0.29844],[51.553661,-0.29797],[51.552586,-0.296966],[51.552069,-0.29651],[51.551383,-0.295904],[51.550569,-0.295033],[51.54997,-0.294369],[51.549141,-0.293569],[51.548563,-0.293013],[51.548256,-0.292663],[51.548014,-0.292342],[51.547807,-0.291956],[51.547621,-0.291528],[51.547493,-0.291085],[51.547407,-0.290636],[51.547121,-0.287752],[51.547043,-0.28636],[51.546993,-0.285796],[51.546922,-0.285139],[51.546793,-0.284347],[51.546664,-0.283719],[51.546465,-0.282933],[51.546208,-0.282112],[51.545915,-0.281277],[51.54538,-0.279721],[51.543971,-0.27581],[51.543752,-0.275203],[51.542517,-0.271912],[51.541979,-0.27047],[51.541306,-0.268821],[51.539812,-0.265348],[51.538079,-0.261474],[51.536385,-0.257866],[51.53629,-0.257632],[51.534475,-0.253135],[51.533821,-0.251459],[51.532922,-0.248896],[51.53241,-0.247267],[51.532252,-0.246693],[51.532112,-0.246075],[51.531817,-0.244742],[51.53131,-0.242517],[51.530853,-0.240289],[51.530475,-0.238032],[51.530341,-0.236922],[51.530242,-0.235695],[51.530157,-0.233825],[51.530128,-0.232183],[51.530143,-0.230741],[51.530313,-0.227803],[51.530413,-0.226184],[51.530532,-0.22493],[51.530584,-0.22438],[51.530681,-0.223202],[51.530784,-0.222189],[51.530902,-0.221371],[51.531091,-0.220301],[51.531352,-0.218959],[51.531705,-0.21742],[51.531858,-0.216682],[51.532008,-0.215971],[51.532283,-0.214811],[51.532661,-0.212959],[51.532997,-0.211331],[51.534052,-0.205223],[51.534693,-0.20151],[51.534974,-0.19991],[51.535034,-0.199503],[51.535115,-0.198925],[51.53518,-0.198271],[51.535256,-0.197486],[51.535313,-0.196731],[51.535339,-0.195923],[51.535325,-0.19532],[51.535311,-0.195072],[51.535284,-0.194842],[51.535256,-0.194643],[51.535215,-0.194442],[51.535154,-0.194134],[51.535104,-0.193922],[51.535084,-0.193841],[51.534919,-0.193265],[51.534744,-0.192813],[51.534516,-0.192262],[51.534055,-0.191245],[51.533789,-0.190737],[51.533498,-0.190221],[51.533079,-0.18957],[51.532582,-0.188889],[51.531393,-0.187495],[51.529803,-0.185775],[51.529583,-0.185513],[51.528353,-0.18405],[51.527972,-0.183641],[51.527787,-0.183468],[51.527713,-0.183409],[51.527633,-0.183362],[51.527564,-0.183331],[51.527496,-0.183312],[51.527439,-0.1833],[51.527373,-0.183292],[51.527314,-0.183288],[51.527262,-0.18329],[51.527182,-0.183295],[51.527109,-0.183305],[51.527032,-0.183323],[51.526928,-0.183365],[51.526821,-0.183416],[51.526645,-0.183509],[51.526069,-0.183833],[51.525718,-0.183965],[51.525265,-0.184098],[51.524923,-0.18415],[51.524519,-0.184182],[51.524343,-0.184188],[51.524174,-0.184179],[51.523791,-0.18414],[51.523549,-0.184093],[51.523427,-0.18406],[51.5233,-0.18401],[51.523194,-0.183949],[51.523103,-0.183877],[51.522991,-0.183775],[51.522887,-0.18366],[51.522788,-0.183543],[51.522655,-0.183352],[51.521124,-0.180959],[51.519515,-0.178453],[51.519392,-0.178265],[51.519324,-0.178171],[51.519256,-0.178085],[51.519184,-0.178004],[51.519099,-0.177921],[51.519008,-0.17784],[51.518923,-0.177773],[51.518829,-0.177709],[51.51873,-0.177643],[51.518605,-0.17757],[51.518442,-0.177477],[51.518288,-0.177399],[51.518245,-0.177383],[51.518164,-0.177351],[51.518077,-0.17732],[51.517992,-0.177302],[51.517905,-0.17729],[51.51782,-0.177281],[51.517741,-0.177282],[51.517638,-0.177289],[51.517027,-0.177363],[51.516703,-0.177402],[51.516578,-0.177409],[51.516458,-0.177407],[51.516356,-0.177398],[51.516258,-0.177381],[51.516161,-0.177352],[51.516058,-0.177314],[51.515965,-0.17727],[51.515874,-0.177221],[51.515784,-0.177157],[51.515702,-0.17708],[51.515631,-0.176993],[51.515567,-0.176898],[51.515509,-0.176794],[51.515455,-0.17669],[51.515415,-0.176595],[51.515382,-0.176495],[51.515358,-0.1764],[51.515341,-0.17631],[51.515337,-0.176228],[51.515341,-0.176149],[51.515354,-0.176077],[51.515395,-0.17595],[51.515395,-0.17595],[51.516147,-0.174619],[51.516477,-0.17402],[51.517269,-0.172618],[51.517379,-0.172458],[51.517467,-0.172353],[51.517542,-0.172272],[51.517627,-0.1722],[51.51771,-0.172134],[51.51779,-0.17208],[51.517905,-0.172014],[51.518026,-0.17195],[51.518617,-0.171618],[51.519983,-0.170847],[51.52012,-0.17076],[51.520248,-0.170657],[51.52028,-0.17063],[51.520314,-0.170596],[51.520347,-0.17056],[51.520377,-0.17052],[51.520408,-0.170477],[51.520433,-0.170437],[51.520447,-0.170413],[51.520463,-0.170381],[51.520478,-0.170349],[51.520493,-0.170316],[51.520509,-0.170276],[51.520523,-0.170225],[51.520577,-0.170034],[51.520879,-0.16896],[51.521261,-0.167601],[51.521668,-0.165867],[51.522089,-0.164079],[51.522215,-0.163412],[51.522223,-0.163366],[51.52245,-0.162163],[51.522726,-0.1607],[51.523157,-0.157693],[51.523157,-0.157692],[51.523169,-0.157593],[51.52318,-0.157502],[51.523194,-0.157384],[51.523204,-0.1573],[51.523216,-0.157202],[51.523238,-0.157015],[51.523262,-0.156815],[51.52329,-0.156579],[51.523311,-0.1564],[51.523337,-0.156186],[51.523362,-0.155978],[51.523387,-0.155764],[51.523398,-0.155588],[51.523398,-0.155397],[51.523393,-0.155047],[51.523375,-0.154684],[51.523336,-0.154345],[51.523268,-0.153981],[51.523178,-0.153631],[51.523095,-0.153221],[51.523061,-0.152878],[51.523089,-0.152192],[51.523179,-0.150816],[51.523279,-0.149364],[51.523298,-0.149152],[51.523322,-0.148966],[51.523456,-0.148193],[51.523584,-0.147459],[51.523585,-0.147378],[51.523584,-0.147305],[51.523575,-0.147224],[51.523562,-0.147142],[51.523538,-0.147001],[51.523513,-0.14689],[51.523492,-0.14681],[51.523476,-0.146761],[51.523457,-0.146712],[51.523437,-0.146666],[51.523412,-0.146623],[51.523386,-0.146582],[51.523357,-0.146544],[51.523326,-0.146505],[51.523294,-0.14647],[51.523244,-0.146421],[51.523194,-0.146376],[51.523119,-0.14632],[51.523102,-0.146308],[51.523079,-0.146291],[51.523042,-0.146269],[51.522959,-0.146225],[51.518624,-0.144244],[51.518515,-0.144183],[51.518468,-0.144155],[51.518426,-0.144125],[51.518381,-0.14409],[51.518341,-0.144052],[51.518282,-0.143991],[51.518229,-0.143926],[51.518172,-0.143842],[51.518122,-0.143756],[51.518049,-0.143612],[51.51795,-0.143416],[51.517809,-0.143177],[51.517736,-0.143066],[51.517664,-0.142968],[51.517627,-0.142922],[51.51759,-0.142879],[51.517549,-0.14284],[51.517504,-0.142804],[51.517451,-0.142767],[51.517403,-0.142737],[51.517347,-0.142706],[51.517289,-0.142676],[51.516664,-0.142425],[51.516014,-0.142164],[51.515774,-0.142057],[51.515614,-0.141981],[51.515446,-0.141914],[51.51526,-0.141859],[51.51526,-0.141859],[51.514696,-0.141716],[51.514587,-0.141685],[51.514484,-0.141644],[51.514138,-0.141463],[51.513935,-0.141333],[51.513716,-0.141177],[51.513499,-0.141004],[51.512279,-0.139919],[51.510874,-0.138667],[51.510795,-0.138597],[51.510728,-0.138529],[51.510644,-0.138443],[51.510569,-0.138354],[51.510505,-0.138264],[51.510444,-0.138161],[51.51039,-0.138042],[51.510343,-0.137936],[51.510063,-0.137176],[51.509749,-0.136325],[51.509588,-0.135885],[51.509443,-0.135491],[51.509182,-0.134805],[51.508911,-0.134097],[51.508495,-0.132906],[51.508105,-0.131707],[51.507948,-0.131169],[51.507809,-0.130567],[51.507705,-0.130041],[51.507619,-0.129496],[51.507498,-0.128519],[51.50746,-0.128128],[51.507454,-0.128085],[51.507399,-0.12772]]},{"id":"g-leg-35","departure":{"lat":51.507402,"lng":-0.12772,"type":"stop","_name":"Charing Cross","time":"2019-01-22T19:55:00.000Z","id":"420326127"},"arrival":{"lat":51.508026,"lng":-0.124777,"type":"stop","_name":"London Charing Cross","time":"2019-01-22T20:02:00.000Z","id":"418102902"},"distance":255,"summary":"Go to London Charing Cross","transport":{"type":"walk","name":"walk"},"steps":[],"geometry":[]},{"id":"g-leg-36","departure":{"lat":51.508026,"lng":-0.124777,"type":"stop","_name":"London Charing Cross","time":"2019-01-22T20:02:00.000Z","id":"418102902"},"arrival":{"lat":51.447369,"lng":0.219276,"type":"stop","_name":"Dartford","time":"2019-01-22T20:40:00.000Z","id":"418103071"},"summary":"Go to Dartford","transport":{"type":"train","name":"Gravesend - London Charing Cross","color":"#1B1650","headsign":"Gravesend"},"steps":[{"lat":51.508026,"lng":-0.124777,"type":"stop","_name":"London Charing Cross","time":"2019-01-22T20:02:00.000Z","id":"418102902"},{"lat":51.504074,"lng":-0.108873,"type":"stop","_name":"London Waterloo East","time":"2019-01-22T20:04:00.000Z","id":"418104942"},{"lat":51.505108,"lng":-0.086062,"type":"stop","_name":"London Bridge","time":"2019-01-22T20:09:00.000Z","id":"418103857"},{"lat":51.438057,"lng":0.07056,"type":"stop","_name":"New Eltham","time":"2019-01-22T20:25:00.000Z","id":"418104123"},{"lat":51.433868,"lng":0.103821,"type":"stop","_name":"Sidcup","time":"2019-01-22T20:28:00.000Z","id":"418104502"},{"lat":51.440216,"lng":0.147929,"type":"stop","_name":"Bexley","time":"2019-01-22T20:32:00.000Z","id":"418102601"},{"lat":51.44828,"lng":0.178963,"type":"stop","_name":"Crayford","time":"2019-01-22T20:35:00.000Z","id":"418103005"},{"lat":51.447369,"lng":0.219276,"type":"stop","_name":"Dartford","time":"2019-01-22T20:40:00.000Z","id":"418103071"}],"geometry":[[51.507994,-0.124723],[51.507744,-0.12433],[51.50753,-0.123974],[51.507307,-0.123532],[51.507189,-0.123253],[51.5069,-0.122631],[51.506717,-0.122223],[51.506631,-0.121987],[51.506599,-0.121901],[51.506106,-0.120442],[51.50544,-0.118232],[51.505387,-0.118049],[51.504925,-0.116086],[51.504711,-0.115324],[51.504443,-0.114445],[51.5044,-0.114294],[51.504303,-0.114015],[51.504142,-0.113415],[51.504046,-0.113018],[51.50396,-0.112567],[51.503906,-0.111891],[51.503906,-0.111784],[51.503885,-0.111301],[51.503885,-0.111194],[51.503853,-0.110367],[51.503863,-0.110217],[51.503906,-0.109863],[51.504032,-0.108868],[51.504035,-0.108844],[51.504228,-0.107621],[51.50426,-0.107331],[51.504271,-0.106591],[51.504196,-0.104778],[51.504185,-0.104542],[51.504153,-0.102235],[51.504099,-0.101495],[51.504035,-0.10083],[51.504046,-0.099682],[51.504067,-0.098738],[51.504185,-0.09569],[51.504185,-0.095497],[51.504228,-0.094886],[51.504303,-0.094317],[51.504368,-0.093899],[51.504518,-0.093352],[51.504582,-0.093137],[51.504689,-0.092901],[51.504853,-0.092405],[51.505108,-0.091635],[51.50529,-0.091056],[51.505419,-0.090616],[51.505483,-0.090369],[51.505555,-0.08999],[51.505652,-0.089358],[51.505747,-0.088824],[51.505786,-0.088567],[51.505824,-0.088215],[51.505838,-0.087915],[51.505833,-0.087639],[51.505809,-0.087344],[51.505747,-0.086973],[51.505657,-0.08664],[51.505562,-0.086345],[51.505433,-0.08604],[51.505295,-0.085783],[51.505124,-0.085526],[51.503868,-0.083808],[51.503659,-0.083492],[51.503439,-0.083118],[51.503235,-0.082738],[51.502716,-0.081624],[51.502415,-0.08096],[51.502114,-0.080305],[51.501761,-0.079565],[51.501246,-0.078546],[51.501063,-0.078192],[51.500022,-0.076271],[51.499089,-0.074533],[51.498671,-0.073782],[51.498134,-0.072709],[51.497748,-0.072087],[51.496654,-0.069877],[51.496192,-0.068911],[51.495795,-0.068074],[51.495237,-0.066841],[51.494518,-0.065242],[51.494443,-0.065081],[51.493532,-0.063096],[51.492534,-0.060822],[51.492287,-0.060264],[51.490796,-0.056938],[51.49013,-0.055382],[51.489991,-0.055017],[51.489455,-0.053623],[51.488961,-0.052325],[51.488725,-0.051649],[51.48865,-0.051488],[51.488081,-0.050307],[51.487309,-0.048494],[51.486912,-0.047497],[51.486643,-0.046821],[51.485946,-0.045147],[51.485474,-0.043945],[51.485378,-0.04372],[51.484938,-0.042593],[51.484745,-0.042111],[51.483715,-0.039514],[51.483629,-0.039332],[51.482953,-0.037959],[51.482556,-0.037315],[51.482223,-0.036864],[51.481826,-0.036435],[51.481429,-0.03606],[51.48114,-0.035824],[51.4807,-0.035513],[51.479262,-0.034568],[51.477256,-0.03312],[51.476333,-0.032422],[51.475904,-0.032133],[51.475829,-0.032068],[51.475046,-0.031521],[51.474724,-0.031328],[51.474445,-0.031114],[51.474037,-0.030706],[51.473758,-0.030416],[51.473512,-0.030148],[51.473072,-0.029622],[51.472782,-0.029257],[51.472213,-0.028485],[51.471698,-0.027734],[51.471215,-0.026983],[51.471194,-0.026897],[51.470904,-0.026361],[51.4707,-0.025953],[51.470271,-0.025009],[51.470014,-0.024408],[51.469488,-0.023249],[51.469274,-0.022788],[51.468984,-0.022112],[51.468383,-0.020567],[51.468254,-0.020224],[51.468147,-0.019977],[51.467428,-0.018411],[51.466505,-0.016115],[51.466355,-0.015664],[51.466055,-0.014859],[51.465797,-0.014001],[51.465792,-0.013977],[51.465411,-0.013926],[51.465261,-0.013754],[51.465057,-0.013551],[51.464821,-0.013368],[51.464585,-0.013218],[51.464489,-0.013175],[51.464263,-0.013089],[51.463984,-0.013025],[51.463877,-0.013014],[51.463609,-0.013014],[51.463341,-0.013025],[51.463062,-0.013089],[51.462804,-0.013218],[51.462396,-0.013518],[51.461914,-0.013969],[51.461549,-0.014194],[51.461077,-0.01442],[51.46069,-0.014527],[51.460401,-0.014527],[51.460079,-0.014484],[51.459961,-0.014441],[51.4598,-0.014398],[51.459521,-0.014248],[51.45907,-0.013926],[51.458942,-0.013819],[51.458556,-0.013475],[51.458448,-0.013325],[51.458373,-0.013196],[51.458244,-0.01296],[51.457955,-0.01236],[51.457804,-0.011995],[51.456646,-0.009066],[51.455627,-0.006716],[51.454865,-0.005214],[51.454564,-0.004656],[51.454296,-0.004206],[51.453985,-0.003691],[51.45347,-0.00295],[51.452891,-0.002232],[51.452451,-0.00147],[51.452204,-0.000998],[51.452134,-0.000861],[51.452011,-0.000622],[51.451839,-0.000225],[51.451753,0],[51.451625,0.000343],[51.451453,0.000815],[51.45126,0.001481],[51.451088,0.002167],[51.45097,0.002822],[51.450831,0.003669],[51.450713,0.004667],[51.450477,0.007027],[51.450412,0.007607],[51.450305,0.008637],[51.450069,0.010793],[51.449876,0.012682],[51.449788,0.013523],[51.449307,0.0181],[51.449114,0.019977],[51.449017,0.02076],[51.4489,0.021662],[51.448771,0.022498],[51.448535,0.023689],[51.448181,0.025223],[51.447848,0.026511],[51.447215,0.028389],[51.446775,0.029526],[51.4464,0.030416],[51.446207,0.030931],[51.444715,0.0346],[51.444426,0.035255],[51.443481,0.037669],[51.442763,0.039439],[51.442022,0.041392],[51.441625,0.042615],[51.441325,0.043699],[51.441261,0.043945],[51.441003,0.045007],[51.440756,0.046209],[51.440585,0.047228],[51.44037,0.04872],[51.440228,0.050081],[51.440188,0.050468],[51.440113,0.051295],[51.439673,0.055393],[51.439168,0.060157],[51.438965,0.061981],[51.438085,0.070231],[51.438051,0.070559],[51.437838,0.072645],[51.43713,0.078374],[51.435885,0.087891],[51.434941,0.095186],[51.434855,0.095862],[51.434373,0.099542],[51.434255,0.100518],[51.434126,0.10172],[51.434061,0.102621],[51.433997,0.103512],[51.433984,0.103826],[51.433965,0.104295],[51.433901,0.10658],[51.433965,0.108597],[51.434029,0.109917],[51.434115,0.111312],[51.434276,0.113232],[51.434877,0.120013],[51.435124,0.123135],[51.435252,0.124337],[51.435376,0.12577],[51.435456,0.126697],[51.435596,0.127963],[51.435832,0.129615],[51.436079,0.131053],[51.436239,0.131836],[51.436476,0.13308],[51.436701,0.134025],[51.436894,0.134754],[51.440235,0.147924],[51.440391,0.148541],[51.440885,0.15015],[51.441175,0.151084],[51.441486,0.151963],[51.441829,0.152961],[51.442054,0.153648],[51.442076,0.153755],[51.442891,0.156995],[51.443396,0.159087],[51.444243,0.162435],[51.444361,0.162864],[51.444426,0.163175],[51.446561,0.171801],[51.447237,0.174623],[51.447537,0.175781],[51.448334,0.17895],[51.448942,0.181371],[51.449683,0.184987],[51.450241,0.188119],[51.450402,0.189053],[51.450638,0.190555],[51.45082,0.191832],[51.450992,0.193452],[51.451067,0.194514],[51.451142,0.195608],[51.451195,0.197561],[51.451185,0.199481],[51.451163,0.200661],[51.451099,0.201745],[51.451013,0.202925],[51.450895,0.204213],[51.450691,0.205951],[51.450445,0.207442],[51.449994,0.209717],[51.44965,0.211884],[51.449532,0.212742],[51.449372,0.213547],[51.449168,0.214384],[51.448749,0.215843],[51.448331,0.216958],[51.447966,0.217903],[51.447805,0.218257],[51.447601,0.218729],[51.44744,0.219296]]},{"id":"g-leg-37","departure":{"lat":51.447369,"lng":0.219276,"type":"stop","_name":"Dartford","time":"2019-01-22T20:40:00.000Z","id":"418103071"},"arrival":{"lat":51.443295,"lng":0.219589,"type":"address","time":"2019-01-22T20:52:00.000Z"},"distance":724,"summary":"Go to 51,0","transport":{"type":"walk","name":"walk"},"steps":[],"geometry":[]}]},{"id":"h-t-route-7-R005ed2-C3","departure":{"lat":51.537354,"lng":-0.383286,"type":"address","time":"2019-01-22T18:29:00.000Z"},"arrival":{"lat":51.443295,"lng":0.219589,"type":"address","time":"2019-01-22T21:06:00.000Z"},"router":{"name":"abstract"},"legs":[{"id":"g-leg-38","departure":{"lat":51.537354,"lng":-0.383286,"type":"address","time":"2019-01-22T18:29:00.000Z"},"arrival":{"lat":51.535019,"lng":-0.38902,"type":"stop","_name":"Church Road (Stop Y)","time":"2019-01-22T18:40:00.000Z","id":"420323707"},"distance":641,"summary":"Go to Church Road (Stop Y)","transport":{"type":"walk","name":"walk"},"steps":[],"geometry":[]},{"id":"g-leg-39","departure":{"lat":51.535019,"lng":-0.38902,"type":"stop","_name":"Church Road (Stop Y)","time":"2019-01-22T18:40:00.000Z","id":"420323707"},"arrival":{"lat":51.515602,"lng":-0.302162,"type":"stop","_name":"Ealing Broadway Station Haven Green (Stop A)","time":"2019-01-22T19:07:00.000Z","id":"420306487"},"summary":"Go to Ealing Broadway Station Haven Green (Stop A)","transport":{"type":"bus","name":"E9","headsign":"Ealing"},"steps":[{"lat":51.535019,"lng":-0.38902,"type":"stop","_name":"Church Road (Stop Y)","time":"2019-01-22T18:40:00.000Z","id":"420323707"},{"lat":51.533245,"lng":-0.384814,"type":"stop","_name":"Wayfarer Road","time":"2019-01-22T18:41:00.000Z","id":"420315065"},{"lat":51.532928,"lng":-0.378251,"type":"stop","_name":"Broadmead Road (Stop WE)","time":"2019-01-22T18:42:00.000Z","id":"420309857"},{"lat":51.532753,"lng":-0.37285,"type":"stop","_name":"Adrienne Avenue (Stop WF)","time":"2019-01-22T18:43:00.000Z","id":"420308220"},{"lat":51.532368,"lng":-0.368264,"type":"stop","_name":"Greenford High School (Stop EG)","time":"2019-01-22T18:44:00.000Z","id":"420314035"},{"lat":51.529938,"lng":-0.363594,"type":"stop","_name":"Eastmead Avenue (Stop EH)","time":"2019-01-22T18:46:00.000Z","id":"420312294"},{"lat":51.528679,"lng":-0.359256,"type":"stop","_name":"Pembroke Road (Stop H)","time":"2019-01-22T18:48:00.000Z","id":"420317961"},{"lat":51.52803,"lng":-0.354075,"type":"stop","_name":"Greenford Broadway (Stop J)","time":"2019-01-22T18:50:00.000Z","id":"420313581"},{"lat":51.527401,"lng":-0.350739,"type":"stop","_name":"Clifton Road (Stop L)","time":"2019-01-22T18:52:00.000Z","id":"420313575"},{"lat":51.527382,"lng":-0.34183,"type":"stop","_name":"Greenford Ave Ruislip Rd East (Stop RS)","time":"2019-01-22T18:53:00.000Z","id":"420313577"},{"lat":51.527725,"lng":-0.338574,"type":"stop","_name":"Cuckoo Avenue (Stop RT)","time":"2019-01-22T18:54:00.000Z","id":"420311704"},{"lat":51.528648,"lng":-0.331519,"type":"stop","_name":"Gurnell Leisure Centre (Stop RW)","time":"2019-01-22T18:55:00.000Z","id":"420313782"},{"lat":51.528,"lng":-0.326353,"type":"stop","_name":"Ruislip Road East (Stop AA)","time":"2019-01-22T18:57:00.000Z","id":"420319127"},{"lat":51.525043,"lng":-0.324097,"type":"stop","_name":"Scotch Common (Stop AB)","time":"2019-01-22T18:58:00.000Z","id":"420319333"},{"lat":51.525089,"lng":-0.319136,"type":"stop","_name":"Kent Gardens West Ealing (Stop SC)","time":"2019-01-22T18:59:00.000Z","id":"420315144"},{"lat":51.526131,"lng":-0.313836,"type":"stop","_name":"Pitshanger Library (Stop SM)","time":"2019-01-22T19:00:00.000Z","id":"420318131"},{"lat":51.52692,"lng":-0.309439,"type":"stop","_name":"St. Barnabas Church (Stop SN)","time":"2019-01-22T19:01:00.000Z","id":"420320131"},{"lat":51.523605,"lng":-0.30825,"type":"stop","_name":"Fairlea Place (Stop SP)","time":"2019-01-22T19:02:00.000Z","id":"420310747"},{"lat":51.521545,"lng":-0.306582,"type":"stop","_name":"Montpelier Road Ealing (Stop SQ)","time":"2019-01-22T19:03:00.000Z","id":"420316850"},{"lat":51.520256,"lng":-0.306082,"type":"stop","_name":"Marchwood Crescent (Stop SR)","time":"2019-01-22T19:04:00.000Z","id":"420316364"},{"lat":51.516769,"lng":-0.306327,"type":"stop","_name":"Castlebar Road (Stop St)","time":"2019-01-22T19:05:00.000Z","id":"420312162"},{"lat":51.515602,"lng":-0.302162,"type":"stop","_name":"Ealing Broadway Station Haven Green (Stop A)","time":"2019-01-22T19:07:00.000Z","id":"420306487"}],"geometry":[[51.534954,-0.389072],[51.534634,-0.388631],[51.533958,-0.387536],[51.533786,-0.38715],[51.53369,-0.38686],[51.533496,-0.386142],[51.533207,-0.384854],[51.533099,-0.384339],[51.532949,-0.383459],[51.532799,-0.382118],[51.532756,-0.381507],[51.532735,-0.381045],[51.532735,-0.380273],[51.532756,-0.379565],[51.532842,-0.378503],[51.532874,-0.378095],[51.532896,-0.377194],[51.532885,-0.375456],[51.532767,-0.373814],[51.532735,-0.373203],[51.532734,-0.37285],[51.532724,-0.37198],[51.532799,-0.371969],[51.532885,-0.371904],[51.532928,-0.371776],[51.532928,-0.3717],[51.532917,-0.371615],[51.532874,-0.371518],[51.532842,-0.371486],[51.532724,-0.371454],[51.532649,-0.371143],[51.532348,-0.368482],[51.532295,-0.367645],[51.532145,-0.367055],[51.531726,-0.365896],[51.531512,-0.365392],[51.531233,-0.36492],[51.531104,-0.364748],[51.53061,-0.364265],[51.529999,-0.36375],[51.529731,-0.363514],[51.529527,-0.363235],[51.529452,-0.363075],[51.529376,-0.362839],[51.529151,-0.361422],[51.528808,-0.360071],[51.528639,-0.359262],[51.528604,-0.358837],[51.528475,-0.357667],[51.528465,-0.357034],[51.528508,-0.356101],[51.528508,-0.355908],[51.528486,-0.355725],[51.528411,-0.355318],[51.528186,-0.354717],[51.527981,-0.354091],[51.527885,-0.353794],[51.52751,-0.352281],[51.527435,-0.351917],[51.527392,-0.351477],[51.527381,-0.351305],[51.527392,-0.350739],[51.527392,-0.350415],[51.527349,-0.349985],[51.527188,-0.349095],[51.527102,-0.348473],[51.527048,-0.34755],[51.527038,-0.347003],[51.527059,-0.345275],[51.527091,-0.344374],[51.527124,-0.343881],[51.527295,-0.3421],[51.52766,-0.338817],[51.527703,-0.337958],[51.527671,-0.337293],[51.527703,-0.336746],[51.527832,-0.335276],[51.527971,-0.334407],[51.528068,-0.333935],[51.528314,-0.333055],[51.528443,-0.332508],[51.528583,-0.331414],[51.528722,-0.328635],[51.528743,-0.327412],[51.528776,-0.327272],[51.528829,-0.327154],[51.528872,-0.327111],[51.528894,-0.327036],[51.528883,-0.326961],[51.52884,-0.326918],[51.528819,-0.326908],[51.528765,-0.32694],[51.528604,-0.32679],[51.528518,-0.326736],[51.527952,-0.326457],[51.526641,-0.325781],[51.526372,-0.32562],[51.526083,-0.325373],[51.525632,-0.324837],[51.524932,-0.324232],[51.524645,-0.324032],[51.524677,-0.323925],[51.524677,-0.323861],[51.524645,-0.323775],[51.524559,-0.323732],[51.524774,-0.321962],[51.52501,-0.31944],[51.525058,-0.319134],[51.525085,-0.318721],[51.525085,-0.318582],[51.525042,-0.318507],[51.52501,-0.318496],[51.525074,-0.318453],[51.525192,-0.318228],[51.525675,-0.315696],[51.526061,-0.313822],[51.526169,-0.313282],[51.526415,-0.312295],[51.526501,-0.312005],[51.52663,-0.311415],[51.526716,-0.310836],[51.526888,-0.309435],[51.526941,-0.30898],[51.525718,-0.308808],[51.524495,-0.308594],[51.524334,-0.308551],[51.524162,-0.308465],[51.523722,-0.308325],[51.523616,-0.308339],[51.523379,-0.308368],[51.52281,-0.308497],[51.522735,-0.30839],[51.522371,-0.307735],[51.521888,-0.307038],[51.521898,-0.307006],[51.521877,-0.306941],[51.521845,-0.30693],[51.521823,-0.306952],[51.521705,-0.306845],[51.521577,-0.306694],[51.521503,-0.306645],[51.521223,-0.306459],[51.520868,-0.306319],[51.520493,-0.306222],[51.520203,-0.306179],[51.519989,-0.306158],[51.519077,-0.306244],[51.516771,-0.306373],[51.516395,-0.306394],[51.51632,-0.305825],[51.516191,-0.305225],[51.516084,-0.304924],[51.515966,-0.304656],[51.515933,-0.30457],[51.516105,-0.30398],[51.51618,-0.303658],[51.516223,-0.30339],[51.516255,-0.302897],[51.516244,-0.302371],[51.516277,-0.302274],[51.516277,-0.302188],[51.516255,-0.302103],[51.516191,-0.302038],[51.516148,-0.302038],[51.516105,-0.30207],[51.516073,-0.302124],[51.516051,-0.30221],[51.515611,-0.302254]]},{"id":"g-leg-40","departure":{"lat":51.515602,"lng":-0.302162,"type":"stop","_name":"Ealing Broadway Station Haven Green (Stop A)","time":"2019-01-22T19:07:00.000Z","id":"420306487"},"arrival":{"lat":51.515206,"lng":-0.301257,"type":"stop","_name":"Ealing Broadway","time":"2019-01-22T19:12:00.000Z","id":"420326166"},"distance":76,"summary":"Go to Ealing Broadway","transport":{"type":"walk","name":"walk"},"steps":[],"geometry":[]},{"id":"g-leg-41","departure":{"lat":51.515206,"lng":-0.301257,"type":"stop","_name":"Ealing Broadway","time":"2019-01-22T19:12:00.000Z","id":"420326166"},"arrival":{"lat":51.497036,"lng":-0.143532,"type":"stop","_name":"Victoria","time":"2019-01-22T19:43:00.000Z","id":"420326500"},"summary":"Go to Victoria","transport":{"type":"subway","name":"District","color":"#09722C","headsign":"Upminster"},"steps":[{"lat":51.515206,"lng":-0.301257,"type":"stop","_name":"Ealing Broadway","time":"2019-01-22T19:12:00.000Z","id":"420326166"},{"lat":51.509977,"lng":-0.288195,"type":"stop","_name":"Ealing Common","time":"2019-01-22T19:15:00.000Z","id":"420326169"},{"lat":51.502766,"lng":-0.280009,"type":"stop","_name":"Acton Town","time":"2019-01-22T19:18:00.000Z","id":"420326050"},{"lat":51.49461,"lng":-0.268015,"type":"stop","_name":"Chiswick Park","time":"2019-01-22T19:20:00.000Z","id":"420326145"},{"lat":51.495141,"lng":-0.254485,"type":"stop","_name":"Turnham Green","time":"2019-01-22T19:22:00.000Z","id":"420326486"},{"lat":51.494999,"lng":-0.245894,"type":"stop","_name":"Stamford Brook","time":"2019-01-22T19:23:00.000Z","id":"420326431"},{"lat":51.494122,"lng":-0.235857,"type":"stop","_name":"Ravenscourt Park","time":"2019-01-22T19:25:00.000Z","id":"420326420"},{"lat":51.492647,"lng":-0.223763,"type":"stop","_name":"Hammersmith","time":"2019-01-22T19:27:00.000Z","id":"420326258"},{"lat":51.490298,"lng":-0.214041,"type":"stop","_name":"Barons Court","time":"2019-01-22T19:29:00.000Z","id":"420326099"},{"lat":51.490635,"lng":-0.206068,"type":"stop","_name":"West Kensington","time":"2019-01-22T19:31:00.000Z","id":"420326522"},{"lat":51.491729,"lng":-0.19369,"type":"stop","_name":"Earl's Court","time":"2019-01-22T19:33:00.000Z","id":"420326171"},{"lat":51.494383,"lng":-0.183068,"type":"stop","_name":"Gloucester Road","time":"2019-01-22T19:37:00.000Z","id":"420326228"},{"lat":51.493974,"lng":-0.173133,"type":"stop","_name":"South Kensington","time":"2019-01-22T19:39:00.000Z","id":"420326443"},{"lat":51.492336,"lng":-0.156087,"type":"stop","_name":"Sloane Square","time":"2019-01-22T19:41:00.000Z","id":"420326455"},{"lat":51.497036,"lng":-0.143532,"type":"stop","_name":"Victoria","time":"2019-01-22T19:43:00.000Z","id":"420326500"}],"geometry":[[51.515206,-0.301257],[51.515205,-0.30037],[51.515209,-0.298863],[51.515211,-0.297573],[51.515216,-0.296937],[51.515229,-0.29551],[51.515237,-0.295215],[51.515255,-0.294917],[51.515275,-0.2947],[51.515306,-0.294489],[51.515339,-0.294309],[51.515369,-0.294154],[51.515403,-0.294011],[51.515455,-0.293843],[51.51562,-0.293274],[51.51574,-0.292859],[51.515787,-0.292676],[51.515825,-0.292502],[51.515859,-0.292309],[51.515887,-0.292127],[51.515904,-0.29195],[51.515918,-0.291707],[51.51592,-0.291452],[51.515908,-0.291083],[51.515891,-0.290745],[51.515877,-0.290551],[51.515859,-0.290372],[51.515837,-0.290218],[51.515809,-0.29007],[51.515778,-0.28993],[51.515738,-0.289788],[51.515693,-0.289661],[51.515642,-0.289521],[51.515568,-0.289339],[51.515483,-0.289151],[51.515395,-0.288996],[51.515289,-0.288838],[51.515112,-0.288612],[51.514679,-0.288157],[51.514586,-0.288063],[51.514506,-0.287992],[51.514421,-0.287928],[51.514314,-0.287856],[51.514202,-0.287795],[51.514071,-0.287737],[51.513935,-0.287691],[51.51385,-0.287673],[51.51376,-0.287664],[51.513648,-0.287663],[51.513539,-0.287676],[51.513344,-0.287703],[51.513156,-0.287745],[51.51287,-0.287837],[51.512718,-0.287894],[51.512558,-0.287944],[51.512385,-0.287984],[51.512183,-0.288015],[51.511026,-0.288167],[51.510526,-0.288215],[51.510226,-0.288218],[51.509977,-0.288195],[51.509922,-0.288191],[51.509654,-0.288144],[51.509391,-0.288075],[51.508951,-0.287936],[51.50872,-0.287863],[51.508523,-0.287795],[51.508264,-0.287714],[51.508027,-0.287612],[51.507728,-0.287456],[51.507566,-0.287357],[51.507405,-0.287255],[51.507257,-0.287133],[51.507098,-0.28701],[51.506933,-0.286864],[51.506766,-0.286698],[51.50652,-0.286438],[51.506293,-0.286145],[51.506104,-0.285865],[51.505878,-0.285492],[51.505657,-0.285084],[51.5055,-0.284781],[51.505343,-0.284461],[51.504599,-0.283125],[51.504211,-0.282474],[51.504015,-0.282142],[51.503821,-0.28179],[51.503682,-0.281526],[51.503542,-0.281247],[51.503412,-0.280993],[51.503268,-0.280718],[51.503173,-0.280562],[51.503048,-0.280372],[51.502917,-0.280195],[51.502798,-0.280044],[51.502766,-0.280009],[51.502628,-0.279855],[51.50248,-0.279714],[51.50229,-0.279534],[51.502103,-0.279382],[51.501866,-0.279224],[51.50144,-0.278969],[51.50108,-0.278765],[51.500848,-0.278644],[51.500682,-0.278544],[51.500436,-0.278414],[51.500336,-0.278354],[51.500237,-0.278282],[51.500151,-0.278215],[51.500059,-0.278131],[51.499947,-0.27803],[51.499838,-0.277916],[51.499728,-0.27779],[51.49963,-0.277664],[51.499486,-0.277472],[51.498869,-0.276598],[51.49867,-0.276294],[51.498309,-0.275708],[51.49823,-0.275575],[51.498149,-0.275424],[51.49806,-0.275252],[51.497982,-0.275076],[51.497731,-0.274477],[51.497579,-0.274099],[51.497467,-0.273866],[51.497357,-0.273639],[51.49722,-0.273388],[51.497075,-0.27315],[51.49698,-0.273004],[51.496876,-0.272858],[51.496697,-0.272618],[51.496294,-0.272125],[51.496077,-0.271875],[51.495877,-0.271613],[51.495784,-0.271487],[51.495697,-0.271347],[51.495613,-0.271203],[51.495539,-0.27105],[51.495431,-0.270819],[51.495266,-0.270448],[51.495142,-0.270123],[51.495035,-0.269816],[51.494903,-0.269375],[51.494775,-0.268873],[51.494718,-0.26862],[51.494672,-0.268384],[51.494632,-0.268152],[51.49461,-0.268015],[51.494583,-0.267846],[51.494546,-0.267555],[51.494524,-0.267329],[51.494506,-0.267096],[51.494497,-0.26687],[51.494491,-0.266643],[51.494494,-0.266346],[51.494504,-0.266097],[51.49452,-0.265865],[51.494546,-0.265635],[51.494736,-0.263838],[51.494864,-0.262762],[51.495013,-0.261392],[51.495052,-0.260975],[51.4951,-0.260319],[51.495114,-0.260145],[51.495162,-0.259192],[51.495177,-0.25881],[51.49519,-0.258476],[51.495197,-0.25811],[51.495201,-0.257414],[51.495158,-0.256203],[51.49514,-0.255679],[51.495128,-0.25511],[51.49514,-0.25452],[51.495141,-0.254485],[51.495147,-0.253906],[51.495152,-0.253285],[51.49518,-0.251633],[51.495175,-0.251062],[51.49516,-0.250288],[51.495105,-0.248199],[51.495086,-0.247508],[51.495081,-0.247343],[51.495072,-0.247088],[51.495058,-0.246833],[51.495032,-0.24644],[51.494996,-0.245894],[51.494968,-0.245479],[51.494958,-0.245306],[51.494945,-0.244966],[51.49494,-0.24466],[51.494939,-0.244234],[51.49495,-0.243793],[51.494964,-0.243321],[51.494963,-0.242847],[51.494946,-0.24232],[51.494913,-0.241683],[51.494866,-0.241057],[51.494808,-0.240453],[51.49473,-0.239792],[51.494647,-0.239225],[51.494591,-0.238859],[51.494436,-0.237982],[51.494287,-0.237104],[51.494236,-0.236745],[51.494197,-0.236402],[51.494151,-0.235855],[51.494146,-0.23579],[51.49408,-0.234812],[51.494063,-0.234591],[51.49401,-0.233921],[51.493977,-0.233476],[51.493936,-0.23307],[51.493915,-0.232863],[51.493873,-0.232407],[51.493832,-0.231931],[51.493796,-0.231438],[51.493724,-0.230393],[51.493704,-0.230128],[51.49368,-0.229708],[51.493666,-0.229524],[51.493651,-0.229186],[51.493644,-0.228817],[51.493657,-0.228281],[51.493681,-0.227644],[51.493701,-0.227368],[51.493711,-0.227177],[51.493714,-0.227038],[51.49371,-0.22689],[51.493698,-0.226766],[51.493685,-0.226632],[51.493667,-0.226492],[51.49362,-0.226219],[51.493555,-0.225939],[51.493439,-0.225505],[51.493297,-0.225058],[51.493127,-0.224511],[51.493077,-0.224365],[51.493025,-0.224239],[51.492956,-0.224125],[51.492896,-0.224048],[51.49284,-0.22397],[51.492778,-0.223896],[51.492647,-0.223763],[51.492478,-0.223591],[51.492154,-0.223253],[51.491461,-0.222539],[51.491039,-0.222027],[51.49091,-0.221836],[51.490797,-0.221641],[51.490697,-0.221462],[51.49061,-0.221276],[51.490531,-0.221067],[51.490467,-0.220881],[51.49042,-0.220699],[51.490318,-0.220284],[51.490277,-0.220082],[51.490251,-0.219875],[51.490234,-0.219677],[51.490224,-0.21947],[51.490208,-0.219012],[51.490209,-0.218545],[51.490228,-0.217839],[51.490259,-0.217026],[51.490297,-0.216144],[51.490312,-0.215781],[51.490322,-0.215354],[51.490321,-0.214926],[51.490298,-0.214041],[51.490295,-0.213905],[51.490269,-0.213449],[51.490212,-0.212866],[51.490086,-0.211809],[51.490043,-0.21133],[51.490012,-0.210885],[51.489986,-0.210346],[51.489992,-0.209805],[51.490032,-0.209115],[51.490055,-0.208815],[51.490097,-0.208501],[51.490136,-0.208239],[51.490178,-0.207986],[51.49025,-0.207611],[51.490433,-0.206814],[51.490635,-0.206068],[51.490673,-0.205924],[51.490999,-0.204877],[51.49109,-0.204593],[51.49114,-0.204401],[51.491183,-0.204192],[51.491212,-0.203966],[51.491233,-0.203735],[51.491245,-0.203552],[51.49125,-0.203387],[51.491251,-0.203247],[51.491245,-0.203103],[51.491231,-0.202935],[51.491207,-0.20276],[51.49117,-0.202548],[51.491121,-0.202323],[51.491066,-0.202142],[51.49101,-0.201979],[51.49094,-0.201808],[51.490856,-0.201632],[51.490774,-0.201478],[51.49067,-0.201321],[51.490458,-0.201082],[51.490272,-0.200841],[51.490105,-0.200593],[51.489959,-0.200343],[51.489823,-0.20008],[51.489694,-0.199781],[51.489608,-0.199531],[51.489545,-0.199317],[51.489498,-0.199124],[51.489461,-0.19893],[51.489423,-0.1987],[51.489393,-0.198453],[51.489381,-0.198135],[51.489387,-0.197927],[51.489404,-0.197713],[51.489438,-0.197463],[51.489484,-0.197211],[51.489528,-0.197024],[51.489555,-0.196926],[51.489587,-0.196832],[51.489641,-0.196706],[51.489688,-0.196614],[51.489746,-0.196522],[51.489792,-0.196461],[51.489887,-0.19633],[51.490336,-0.195723],[51.491729,-0.19369],[51.492027,-0.193255],[51.493799,-0.190522],[51.494108,-0.190002],[51.494395,-0.189518],[51.494529,-0.189278],[51.494623,-0.189095],[51.494667,-0.189],[51.494707,-0.188904],[51.494745,-0.188806],[51.494782,-0.188707],[51.494814,-0.188607],[51.494846,-0.188492],[51.494874,-0.18839],[51.494907,-0.188236],[51.49494,-0.188051],[51.494978,-0.187804],[51.495005,-0.187597],[51.495026,-0.187371],[51.495039,-0.18714],[51.495047,-0.186875],[51.495049,-0.186634],[51.495036,-0.186369],[51.495009,-0.186114],[51.494962,-0.185825],[51.494797,-0.185145],[51.494383,-0.183068],[51.494312,-0.18271],[51.494014,-0.181092],[51.493919,-0.180295],[51.493884,-0.179438],[51.493884,-0.178367],[51.493943,-0.177309],[51.494059,-0.175346],[51.494071,-0.175124],[51.494076,-0.174881],[51.494068,-0.174605],[51.494052,-0.174357],[51.494032,-0.174022],[51.493978,-0.173206],[51.493974,-0.173133],[51.493936,-0.172491],[51.493919,-0.17209],[51.493934,-0.171534],[51.493973,-0.171066],[51.493987,-0.170832],[51.493994,-0.170613],[51.493994,-0.17037],[51.493976,-0.169903],[51.49394,-0.169257],[51.493872,-0.167681],[51.493865,-0.16746],[51.493695,-0.163743],[51.493676,-0.16321],[51.493597,-0.161367],[51.493548,-0.160922],[51.49348,-0.160451],[51.493401,-0.16003],[51.493302,-0.159635],[51.493176,-0.15918],[51.493034,-0.158713],[51.49262,-0.157413],[51.492304,-0.156307],[51.492253,-0.156109],[51.492235,-0.156042],[51.49209,-0.155485],[51.491983,-0.154979],[51.491906,-0.15451],[51.49186,-0.154001],[51.491846,-0.153225],[51.49187,-0.152689],[51.491906,-0.152297],[51.491948,-0.151958],[51.491993,-0.151651],[51.492048,-0.151379],[51.492113,-0.151125],[51.492281,-0.150524],[51.492428,-0.150044],[51.492579,-0.149624],[51.492698,-0.149348],[51.492817,-0.149108],[51.492927,-0.148887],[51.493044,-0.14869],[51.493162,-0.148503],[51.493292,-0.148329],[51.494676,-0.146562],[51.496147,-0.144683],[51.496811,-0.143835],[51.497035,-0.143532],[51.497035,-0.143531]]},{"id":"g-leg-42","departure":{"lat":51.497036,"lng":-0.143532,"type":"stop","_name":"Victoria","time":"2019-01-22T19:43:00.000Z","id":"420326500"},"arrival":{"lat":51.494954,"lng":-0.144457,"type":"stop","_name":"London Victoria","time":"2019-01-22T19:53:00.000Z","id":"418104808"},"distance":415,"summary":"Go to London Victoria","transport":{"type":"walk","name":"walk"},"steps":[],"geometry":[]},{"id":"g-leg-43","departure":{"lat":51.494954,"lng":-0.144457,"type":"stop","_name":"London Victoria","time":"2019-01-22T20:06:00.000Z","id":"418104808"},"arrival":{"lat":51.447369,"lng":0.219276,"type":"stop","_name":"Dartford","time":"2019-01-22T20:54:00.000Z","id":"418103071"},"summary":"Go to Dartford","transport":{"type":"train","name":"Gravesend - London Victoria","color":"#1B1650","headsign":"Gravesend"},"steps":[{"lat":51.494954,"lng":-0.144457,"type":"stop","_name":"London Victoria","time":"2019-01-22T20:06:00.000Z","id":"418104808"},{"lat":51.468201,"lng":-0.089335,"type":"stop","_name":"Denmark Hill","time":"2019-01-22T20:15:00.000Z","id":"418108187"},{"lat":51.470032,"lng":-0.069374,"type":"stop","_name":"Peckham Rye","time":"2019-01-22T20:18:00.000Z","id":"418108259"},{"lat":51.466827,"lng":-0.052247,"type":"stop","_name":"Nunhead","time":"2019-01-22T20:21:00.000Z","id":"418104112"},{"lat":51.465691,"lng":-0.013999,"type":"stop","_name":"Lewisham","time":"2019-01-22T20:26:00.000Z","id":"418103808"},{"lat":51.465794,"lng":0.008898,"type":"stop","_name":"Blackheath","time":"2019-01-22T20:29:00.000Z","id":"418102642"},{"lat":51.46212,"lng":0.027523,"type":"stop","_name":"Kidbrooke","time":"2019-01-22T20:32:00.000Z","id":"418103697"},{"lat":51.455643,"lng":0.052499,"type":"stop","_name":"Eltham","time":"2019-01-22T20:35:00.000Z","id":"418103211"},{"lat":51.459152,"lng":0.079331,"type":"stop","_name":"Falconwood","time":"2019-01-22T20:39:00.000Z","id":"418103257"},{"lat":51.464798,"lng":0.101717,"type":"stop","_name":"Welling","time":"2019-01-22T20:41:00.000Z","id":"418104870"},{"lat":51.463497,"lng":0.133762,"type":"stop","_name":"Bexleyheath","time":"2019-01-22T20:44:00.000Z","id":"418102816"},{"lat":51.464958,"lng":0.159673,"type":"stop","_name":"Barnehurst","time":"2019-01-22T20:47:00.000Z","id":"418102751"},